15

ArduCopter V3.1.2 (ddd4d881)
Free RAM: 923
APM 2
FMT, 128, 89, FMT, BBnNZ, Type,Length,Name,Format
FMT, 129, 23, PARM, Nf, Name,Value
FMT, 130, 45, GPS, BIHBcLLeeEefI, Status,TimeMS,Week,NSats,HDop,Lat,Lng,RelAlt,Alt,Spd,GCrs,VZ,T
FMT, 131, 31, IMU, Iffffff, TimeMS,GyrX,GyrY,GyrZ,AccX,AccY,AccZ
FMT, 132, 67, MSG, Z, Message
FMT, 25, 25, ATUN, BBfffff, Axis,TuneStep,RateMin,RateMax,RPGain,RDGain,SPGain
FMT, 26, 9, ATDE, cf, Angle,Rate
FMT, 9, 19, CURR, hIhhhf, ThrOut,ThrInt,Volt,Curr,Vcc,CurrTot
FMT, 11, 11, MOT, hhhh, Mot1,Mot2,Mot3,Mot4
FMT, 12, 28, OF, hhBccffee, Dx,Dy,SQual,X,Y,Lat,Lng,Roll,Pitch
FMT, 5, 49, NTUN, Ecffffffffee, WPDst,WPBrg,PErX,PErY,DVelX,DVelY,VelX,VelY,DAcX,DAcY,DRol,DPit
FMT, 4, 25, CTUN, hcefchhhh, ThrIn,SonAlt,BarAlt,WPAlt,DesSonAlt,AngBst,CRate,ThrOut,DCRate
FMT, 15, 21, MAG, hhhhhhhhh, MagX,MagY,MagZ,OfsX,OfsY,OfsZ,MOfsX,MOfsY,MOfsZ
FMT, 6, 19, PM, BBHHIhBHB, RenCnt,RenBlw,NLon,NLoop,MaxT,PMT,I2CErr,INSErr,INAVErr
FMT, 8, 20, CMD, BBBBBeLL, CTot,CNum,CId,COpt,Prm1,Alt,Lat,Lng
FMT, 1, 17, ATT, cccccCC, RollIn,Roll,PitchIn,Pitch,YawIn,Yaw,NavYaw
FMT, 17, 37, INAV, cccfffiiff, BAlt,IAlt,IClb,ACorrX,ACorrY,ACorrZ,GLat,GLng,ILat,ILng
FMT, 3, 6, MODE, Mh, Mode,ThrCrs
FMT, 10, 3, STRT, ,
FMT, 13, 4, EV, B, Id
FMT, 20, 6, D16, Bh, Id,Value
FMT, 21, 6, DU16, BH, Id,Value
FMT, 22, 8, D32, Bi, Id,Value
FMT, 23, 8, DU32, BI, Id,Value
FMT, 24, 8, DFLT, Bf, Id,Value
FMT, 14, 28, PID, Biiiiif, Id,Error,P,I,D,Out,Gain
FMT, 18, 27, CAM, IHLLeccC, GPSTime,GPSWeek,Lat,Lng,Alt,Roll,Pitch,Yaw
FMT, 19, 5, ERR, BB, Subsys,ECode
MSG, ArduCopter V3.1.2 (ddd4d881)
MODE, STABILIZE, 322
D32, 9, 12679
EV, 10
GPS, 1, 0, 0, 0, 99.99, 37.7508988, -122.4686871, -0.15, 217.55, 0.00, 0.00, 0.000000, 75152
CTUN, 0, 0.00, 0.00, 0.000000, 0.00, 0, 0, 0, 0
ATT, 0.00, -0.18, 0.00, -0.76, 0.00, 126.79, 126.79
CTUN, 0, 0.00, -0.04, 0.000000, 0.00, 0, 0, 0, 0
ATT, 0.00, -0.18, 0.00, -0.75, 0.00, 126.79, 126.79
CTUN, 0, 0.00, -0.01, 0.000000, 0.00, 0, 0, 0, 0
ATT, 0.00, -0.17, 0.00, -0.74, 0.00, 126.79, 126.79
GPS, 1, 0, 0, 0, 99.99, 37.7508988, -122.4686871, -0.14, 217.55, 0.00, 0.00, 0.000000, 75389
CTUN, 0, 0.00, -0.07, 0.000000, 0.00, 0, 0, 0, 0
ATT, 0.00, -0.17, 0.00, -0.74, 0.00, 126.80, 126.80
CTUN, 0, 0.00, 0.03, 0.000000, 0.00, 0, 0, 0, 0
ATT, 0.00, -0.17, 0.00, -0.74, 0.00, 126.80, 126.80
GPS, 1, 0, 0, 0, 99.99, 37.7508988, -122.4686871, -0.13, 217.55, 0.00, 0.00, 0.000000, 75569
CTUN, 0, 0.00, 0.08, 0.000000, 0.00, 0, 0, 0, 0
ATT, 0.00, -0.17, 0.00, -0.74, 0.00, 126.80, 126.80
DU32, 7, 270938
CURR, 0, 0, 0, 0, 4732, 0.000000
CTUN, 0, 0.00, 0.04, 0.000000, 0.00, 0, 0, 0, 0
ATT, 0.00, -0.17, 0.00, -0.74, 0.00, 126.81, 126.81
GPS, 1, 0, 0, 0, 99.99, 37.7508988, -122.4686871, -0.11, 217.55, 0.00, 0.00, 0.000000, 75789
CTUN, 0, 0.00, 0.01, 0.000000, 0.00, 0, 0, 0, 0
ATT, 0.00, -0.17, 0.00, -0.74, 0.00, 126.81, 126.81
CTUN, 0, 0.00, 0.06, 0.000000, 0.00, 0, 0, 0, 0
ATT, 0.00, -0.17, 0.00, -0.74, 0.00, 126.82, 126.82
GPS, 1, 0, 0, 0, 99.99, 37.7508988, -122.4686871, -0.09, 217.55, 0.00, 0.00, 0.000000, 75989
CTUN, 0, 0.00, 0.00, 0.000000, 0.00, 0, 0, 0, 0
ATT, 0.00, -0.16, 0.00, -0.74, 0.00, 126.82, 126.82
CTUN, 0, 0.00, -0.03, 0.000000, 0.00, 0, 0, 0, 0
ATT, 0.00, -0.16, 0.00, -0.73, 0.00, 126.82, 126.82
GPS, 1, 0, 0, 0, 99.99, 37.7508988, -122.4686871, -0.08, 217.55, 0.00, 0.00, 0.000000, 76189
CTUN, 0, 0.00, 0.04, 0.000000, 0.00, 0, 0, 0, 0
ATT, 0.00, -0.16, 0.00, -0.73, 0.00, 126.82, 126.82
GPS, 1, 0, 0, 0, 99.99, 37.7508988, -122.4686871, -0.07, 217.55, 0.00, 0.00, 0.000000, 76329
CTUN, 0, 0.00, 0.02, 0.000000, 0.00, 0, 0, 0, 0
ATT, 0.00, -0.16, 0.00, -0.73, 0.00, 126.83, 126.83
CTUN, 0, 0.00, 0.04, 0.000000, 0.00, 0, 0, 0, 0
ATT, 0.00, -0.16, 0.00, -0.73, 0.00, 126.83, 126.83
GPS, 1, 0, 0, 0, 99.99, 37.7508988, -122.4686871, -0.05, 217.55, 0.00, 0.00, 0.000000, 76529
CTUN, 0, 0.00, 0.01, 0.000000, 0.00, 0, 0, 0, 0
ATT, 0.00, -0.15, 0.00, -0.73, 0.00, 126.83, 126.83
CTUN, 0, 0.00, 0.00, 0.000000, 0.00, 0, 0, 0, 0
ATT, 0.00, -0.15, 0.00, -0.73, 0.00, 126.84, 126.84
GPS, 1, 0, 0, 0, 99.99, 37.7508988, -122.4686871, -0.04, 217.55, 0.00, 0.00, 0.000000, 76729
DU32, 7, 270938
CURR, 0, 0, 0, 0, 4772, 0.000000
CTUN, 0, 0.00, -0.01, 0.000000, 0.00, 0, 0, 0, 0
ATT, 0.00, -0.15, 0.00, -0.73, 0.00, 126.84, 126.84
CTUN, 0, 0.00, 0.00, 0.000000, 0.00, 0, 0, 0, 0
ATT, 0.00, -0.15, 0.00, -0.73, 0.00, 126.84, 126.84
GPS, 1, 0, 0, 0, 99.99, 37.7508988, -122.4686871, -0.04, 217.55, 0.00, 0.00, 0.000000, 76929
CTUN, 0, 0.00, -0.11, 0.000000, 0.00, 0, 0, 0, 0
ATT, 0.00, -0.15, 0.00, -0.73, 0.00, 126.85, 126.85
CTUN, 0, 0.00, 0.00, 0.000000, 0.00, 0, 0, 0, 0
ATT, 0.00, -0.15, 0.00, -0.73, 0.00, 126.85, 126.85
GPS, 1, 0, 0, 0, 99.99, 37.7508988, -122.4686871, -0.04, 217.55, 0.00, 0.00, 0.000000, 77128
CTUN, 0, 0.00, -0.09, 0.000000, 0.00, 0, 0, 0, 0
ATT, 0.00, -0.15, 0.00, -0.73, 0.00, 126.86, 126.86
CTUN, 0, 0.00, -0.04, 0.000000, 0.00, 0, 0, 0, 0
ATT, 0.00, -0.14, 0.00, -0.72, 0.00, 126.86, 126.86
GPS, 1, 0, 0, 0, 99.99, 37.7508988, -122.4686871, -0.04, 217.55, 0.00, 0.00, 0.000000, 77328
CTUN, 0, 0.00, -0.13, 0.000000, 0.00, 0, 0, 0, 0
ATT, 0.00, -0.14, 0.00, -0.72, 0.00, 126.86, 126.86
CTUN, 0, 0.00, -0.05, 0.000000, 0.00, 0, 0, 0, 0
ATT, 0.00, -0.14, 0.00, -0.72, 0.00, 126.87, 126.87
GPS, 1, 0, 0, 0, 99.99, 37.7508988, -122.4686871, -0.04, 217.55, 0.00, 0.00, 0.000000, 77528
CTUN, 0, 0.00, -0.10, 0.000000, 0.00, 0, 0, 0, 0
ATT, 0.00, -0.14, 0.00, -0.73, 0.00, 126.87, 126.87
CTUN, 0, 0.00, -0.17, 0.000000, 0.00, 0, 0, 0, 0
ATT, 0.00, -0.14, 0.00, -0.73, 0.00, 126.87, 126.87
DU32, 7, 270938
CURR, 0, 0, 0, 0, 4752, 0.000000
GPS, 1, 0, 0, 0, 99.99, 37.7508988, -122.4686871, -0.05, 217.55, 0.00, 0.00, 0.000000, 77749
CTUN, 0, 0.00, -0.03, 0.000000, 0.00, 0, 0, 0, 0
ATT, 0.00, -0.14, 0.00, -0.72, 0.00, 126.87, 126.87
CTUN, 0, 0.00, -0.11, 0.000000, 0.00, 0, 0, 0, 0
ATT, 0.00, -0.14, 0.00, -0.72, 0.00, 126.88, 126.88
GPS, 1, 0, 0, 0, 99.99, 37.7508988, -122.4686871, -0.05, 217.55, 0.00, 0.00, 0.000000, 77949
CTUN, 0, 0.00, -0.17, 0.000000, 0.00, 0, 0, 0, 0
ATT, 0.00, -0.14, 0.00, -0.72, 0.00, 126.88, 126.88
CTUN, 0, 0.00, -0.17, 0.000000, 0.00, 0, 0, 0, 0
ATT, 0.00, -0.14, 0.00, -0.72, 0.00, 126.89, 126.89
GPS, 1, 0, 0, 0, 99.99, 37.7508988, -122.4686871, -0.07, 217.55, 0.00, 0.00, 0.000000, 78128
CTUN, 0, 0.00, -0.19, 0.000000, 0.00, 0, 0, 0, 0
ATT, 0.00, -0.14, 0.00, -0.72, 0.00, 126.89, 126.89
CTUN, 0, 0.00, -0.11, 0.000000, 0.00, 0, 0, 0, 0
ATT, 0.00, -0.14, 0.00, -0.72, 0.00, 126.89, 126.89
GPS, 1, 0, 0, 0, 99.99, 37.7508988, -122.4686871, -0.08, 217.55, 0.00, 0.00, 0.000000, 78328
CTUN, 0, 0.00, -0.02, 0.000000, 0.00, 0, 0, 0, 0
ATT, 0.00, -0.13, 0.00, -0.72, 0.00, 126.89, 126.89
CTUN, 0, 0.00, -0.10, 0.000000, 0.00, 0, 0, 0, 0
ATT, 0.00, -0.14, 0.00, -0.72, 0.00, 126.90, 126.90
GPS, 1, 0, 0, 0, 99.99, 37.7508988, -122.4686871, -0.08, 217.55, 0.00, 0.00, 0.000000, 78528
CTUN, 0, 0.00, -0.18, 0.000000, 0.00, 0, 0, 0, 0
ATT, 0.00, -0.13, 0.00, -0.71, 0.00, 126.90, 126.90
CTUN, 0, 0.00, -0.07, 0.000000, 0.00, 0, 0, 0, 0
ATT, 0.00, -0.13, 0.00, -0.71, 0.00, 126.90, 126.90
DU32, 7, 270938
CURR, 0, 0, 0, 0, 4732, 0.000000
CTUN, 0, 0.00, 0.00, 0.000000, 0.00, 0, 0, 0, 0
ATT, 0.00, -0.13, 0.00, -0.71, 0.00, 126.90, 126.90
GPS, 1, 0, 0, 4, 6.21, 37.7510324, -122.4685081, -0.08, 212.30, 0.00, 0.00, 0.000000, 78767
CTUN, 0, 0.00, -0.18, 0.000000, 0.00, 0, 0, 0, 0
ATT, 0.00, -0.13, 0.00, -0.71, 0.00, 126.90, 126.90
GPS, 1, 0, 0, 4, 6.21, 37.7510355, -122.4685208, -0.08, 212.43, 1.58, 0.00, 0.000000, 78908
EV, 15
CTUN, 156, 0.00, -0.01, 0.000000, 0.00, 0, -1, 156, 0
ATT, 0.00, -0.13, 0.00, -0.71, 0.00, 126.90, 126.90
EV, 28
CTUN, 156, 0.00, -0.08, 0.000000, 0.00, 0, -1, 156, 0
ATT, 0.00, -0.13, 0.00, -0.71, 0.00, 126.90, 126.90
GPS, 1, 0, 0, 4, 6.21, 37.7510389, -122.4685216, -0.08, 211.90, 1.76, 0.00, 0.000000, 79109
CTUN, 194, 0.00, -0.13, 0.000000, 0.00, 0, -1, 194, 0
ATT, 0.00, -0.13, 0.00, -0.71, 0.00, 126.88, 126.90
CTUN, 194, 0.00, -0.05, 0.000000, 0.00, 0, -1, 194, 0
ATT, 0.00, -0.13, 0.00, -0.70, 0.00, 126.80, 126.90
GPS, 3, 522339800, 1782, 5, 5.95, 37.7510623, -122.4684832, -0.09, 209.78, 1.00, 0.00, 1.180000, 79328
CTUN, 195, 0.00, -0.08, 0.000000, 0.00, 0, 0, 195, 0
ATT, 0.00, -0.12, 0.00, -0.71, 0.00, 126.64, 126.90
CTUN, 195, 0.00, 0.14, 0.000000, 0.00, 0, -1, 195, 0
ATT, 0.00, -0.12, 0.00, -0.70, 0.00, 126.38, 126.90
GPS, 3, 522340000, 1782, 5, 5.95, 37.7510667, -122.4684794, -0.08, 209.16, 1.00, 0.00, 1.180000, 79509
CTUN, 194, 0.00, 0.06, 0.000000, 0.00, 0, -1, 194, 0
ATT, 0.00, -0.13, 0.00, -0.70, 0.00, 126.19, 126.90
CTUN, 194, 0.00, 0.02, 0.000000, 0.00, 0, 0, 194, 0
ATT, 0.00, -0.12, 0.00, -0.70, 0.00, 126.04, 126.90
GPS, 3, 522340200, 1782, 5, 5.95, 37.7510655, -122.4684859, -0.07, 208.78, 0.78, 0.00, 1.000000, 79708
DU32, 7, 270458
CURR, 194, 1322, 0, 0, 4752, 0.000000
CTUN, 194, 0.00, -0.02, 0.000000, 0.00, 0, 0, 194, 0
ATT, 0.00, -0.12, 0.00, -0.69, 0.00, 125.92, 126.90
CTUN, 194, 0.00, 0.00, 0.000000, 0.00, 0, 0, 194, 0
ATT, 0.00, -0.12, 0.00, -0.70, 0.00, 125.83, 126.90
GPS, 3, 522340400, 1782, 5, 5.95, 37.7510648, -122.4684911, -0.06, 208.32, 0.71, 0.00, 0.830000, 79908
CTUN, 195, 0.00, 0.01, 0.000000, 0.00, 0, 0, 195, 0
ATT, 0.00, -0.12, 0.00, -0.70, 0.00, 125.70, 126.90
CTUN, 194, 0.00, -0.04, 0.000000, 0.00, 0, 0, 194, 0
ATT, 0.00, -0.11, 0.00, -0.69, 0.00, 125.57, 126.90
GPS, 3, 522340600, 1782, 5, 5.95, 37.7510659, -122.4684974, -0.05, 207.57, 0.61, 0.00, 0.660000, 80128
CTUN, 194, 0.00, -0.02, 0.000000, 0.00, 0, 0, 194, 0
ATT, 0.00, -0.10, 0.00, -0.69, 0.00, 125.49, 126.90
CTUN, 194, 0.00, 0.03, 0.000000, 0.00, 0, -1, 194, 0
ATT, 0.00, -0.11, 0.00, -0.69, 0.00, 125.41, 126.90
GPS, 3, 522340800, 1782, 5, 5.95, 37.7510646, -122.4685070, -0.05, 207.05, 0.61, 0.00, 0.660000, 80308
CTUN, 194, 0.00, -0.01, 0.000000, 0.00, 0, -1, 194, 0
ATT, 0.00, -0.10, 0.00, -0.69, 0.00, 125.35, 126.90
CTUN, 194, 0.00, -0.05, 0.000000, 0.00, 0, -1, 194, 0
ATT, 0.00, -0.10, 0.00, -0.69, 0.00, 125.30, 126.90
GPS, 3, 522341000, 1782, 5, 5.95, 37.7510665, -122.4685084, -0.05, 206.60, 0.46, 0.00, 0.580000, 80508
CTUN, 194, 0.00, -0.04, 0.000000, 0.00, 0, 0, 194, 0
ATT, 0.00, -0.10, 0.00, -0.69, 0.00, 125.25, 126.90
CTUN, 195, 0.00, 0.01, 0.000000, 0.00, 0, 0, 195, 0
ATT, 0.00, -0.10, 0.00, -0.69, 0.00, 125.17, 126.90
GPS, 3, 522341200, 1782, 5, 5.95, 37.7510682, -122.4685096, -0.05, 206.32, 0.38, 0.00, 0.460000, 80708
DU32, 7, 270458
CURR, 206, 3266, 0, 0, 4712, 0.000000
CTUN, 231, 0.00, 0.05, 0.000000, 0.00, 0, -1, 231, 0
ATT, 0.00, -0.10, 0.00, -0.69, 0.00, 125.09, 126.90
CTUN, 231, 0.00, 0.14, 0.000000, 0.00, 0, -2, 231, 0
ATT, 0.00, -0.10, 0.00, -0.68, 0.00, 125.01, 126.90
GPS, 3, 522341400, 1782, 6, 3.45, 37.7510249, -122.4685548, -0.03, 213.33, 0.06, 0.00, 0.340000, 80928
CTUN, 231, 0.00, -0.10, 0.000000, 0.00, 0, -1, 231, 0
ATT, 0.00, -0.01, 0.00, -0.70, 0.00, 124.86, 126.90
EV, 16
CTUN, 267, 0.00, 0.12, 0.000000, 0.00, 0, 0, 267, 0
ATT, 0.00, 0.38, 0.00, -0.78, 0.00, 124.73, 126.90
GPS, 3, 522341600, 1782, 6, 3.45, 37.7510014, -122.4685790, -0.03, 217.20, 0.05, 0.00, 0.360000, 81127
CTUN, 267, 0.00, 0.01, 0.000000, 0.00, 0, 0, 267, 0
ATT, 0.00, 0.70, 0.00, -0.83, 0.00, 124.58, 126.90
CTUN, 267, 0.00, 0.13, 0.000000, 0.00, 0, -2, 267, 0
ATT, 0.00, 0.69, 0.00, -0.82, 0.00, 124.37, 126.90
GPS, 3, 522341800, 1782, 6, 3.45, 37.7509856, -122.4685938, -0.02, 219.77, 0.22, 0.00, 0.370000, 81327
EV, 25
CMD, 4, 0, 16, 0, 0, 0.00, 37.7509856, -122.4685938
CTUN, 267, 0.00, 0.05, 0.000000, 0.00, 0, -3, 267, 0
ATT, 0.00, 0.73, 0.00, -0.79, 0.00, 124.12, 126.90
CTUN, 271, 0.00, 0.21, 0.000000, 0.00, 0, 0, 271, 0
ATT, 0.00, 0.84, 0.00, -0.75, 0.00, 123.93, 126.90
GPS, 3, 522342000, 1782, 6, 3.45, 37.7509698, -122.4686107, -0.01, 222.10, 0.22, 0.00, 0.370000, 81517
CTUN, 337, 0.00, 0.20, 0.000000, 0.00, 0, 3, 337, 0
ATT, 0.00, 0.88, 0.00, -0.72, 0.00, 123.76, 126.90
CTUN, 337, 0.00, 0.05, 0.000000, 0.00, 0, 8, 337, 0
ATT, 0.00, 0.87, 0.00, 0.10, 0.00, 123.47, 126.90
GPS, 3, 522342200, 1782, 6, 3.45, 37.7509636, -122.4686178, 0.01, 223.44, 0.42, 0.00, 0.480000, 81717
DU32, 7, 270715
CURR, 338, 5949, 0, 0, 4772, 0.000000
PM, 0, 0, 2, 1000, 7355520, 0, 0, 0, 0
CTUN, 337, 0.00, 0.05, 0.000000, 0.00, 0, 12, 337, 0
ATT, 0.00, 0.30, 0.00, 1.23, 0.00, 123.35, 126.90
CTUN, 338, 0.00, 0.04, 0.000000, 0.00, 0, 17, 338, 0
ATT, 0.00, -0.22, 0.00, 1.38, 0.00, 123.36, 126.90
GPS, 3, 522342400, 1782, 6, 3.45, 37.7509562, -122.4686291, 0.05, 224.74, 0.32, 0.00, 0.390000, 81917
CTUN, 337, 0.00, 0.13, 0.000000, 0.00, 0, 24, 337, 0
ATT, 0.45, -0.27, -8.31, 1.48, 0.00, 123.66, 126.90
CTUN, 337, 0.00, 0.20, 0.000000, 0.00, 0, 27, 337, 0
ATT, 0.50, -0.18, -10.52, -0.54, 0.00, 124.07, 126.90
GPS, 3, 522342600, 1782, 6, 3.45, 37.7509481, -122.4686397, 0.12, 225.38, 0.23, 0.00, 0.420000, 82117
CTUN, 337, 0.00, 0.05, 0.000000, 0.00, 0, 29, 337, 0
ATT, 0.53, -0.38, -14.21, -5.06, 0.00, 124.65, 126.90
CTUN, 337, 0.00, 0.24, 0.000000, 0.00, 2, 32, 339, 0
ATT, 0.41, -0.21, -15.19, -8.66, 0.00, 125.24, 126.90
GPS, 3, 522342800, 1782, 6, 3.45, 37.7509408, -122.4686498, 0.18, 225.94, 0.34, 0.00, 0.300000, 82317
CTUN, 337, 0.00, 0.27, 0.000000, 0.00, 4, 33, 341, 0
ATT, 0.06, 0.26, -3.17, -11.59, 0.00, 125.65, 126.90
CTUN, 337, 0.00, 0.24, 0.000000, 0.00, 3, 33, 340, 0
ATT, 0.00, 0.00, 0.00, -9.84, 0.00, 125.94, 126.90
GPS, 3, 522343000, 1782, 6, 3.45, 37.7509352, -122.4686557, 0.26, 226.57, 0.39, 0.00, 0.400000, 82517
CTUN, 338, 0.00, 0.26, 0.000000, 0.00, 0, 28, 338, 0
ATT, 0.00, -0.28, 0.00, -2.86, 0.00, 126.11, 126.90
CTUN, 337, 0.00, 0.35, 0.000000, 0.00, 0, 27, 337, 0
ATT, 7.91, -0.26, 0.13, 0.39, 0.00, 125.80, 126.90
GPS, 3, 522343200, 1782, 8, 3.06, 37.7509350, -122.4686532, 0.33, 226.34, 0.06, 0.00, 0.290000, 82736
DU32, 7, 270715
CURR, 338, 9334, 0, 0, 4732, 0.000000
CTUN, 337, 0.00, 0.23, 0.000000, 0.00, 0, 30, 337, 0
ATT, 11.64, 2.35, 0.23, -0.03, 0.00, 125.65, 126.90
CTUN, 337, 0.00, 0.37, 0.000000, 0.00, 2, 33, 339, 0
ATT, 5.46, 9.58, 0.10, 0.75, 0.00, 125.72, 126.90
GPS, 3, 522343400, 1782, 8, 3.06, 37.7509339, -122.4686522, 0.39, 226.57, 0.08, 0.00, 0.280000, 82936
CTUN, 337, 0.00, 0.44, 0.000000, 0.00, 2, 31, 339, 0
ATT, 1.85, 8.57, 0.03, 1.59, 0.00, 125.59, 126.90
CTUN, 338, 0.00, 0.60, 0.000000, 0.00, 0, 25, 338, 0
ATT, 0.00, 3.23, 0.00, 1.17, 0.00, 125.37, 126.90
GPS, 3, 522343600, 1782, 8, 3.06, 37.7509331, -122.4686521, 0.46, 226.18, 0.03, 0.00, 0.150000, 83136
CTUN, 338, 0.00, 0.53, 0.000000, 0.00, 0, 20, 338, 0
ATT, -10.19, 0.68, -0.26, 1.07, 0.00, 125.31, 126.90
CTUN, 338, 0.00, 0.57, 0.000000, 0.00, 0, 17, 338, 0
ATT, -13.55, -2.23, -0.35, 1.63, 0.00, 125.30, 126.90
GPS, 3, 522343800, 1782, 8, 3.06, 37.7509346, -122.4686507, 0.51, 225.77, 0.30, 0.00, 0.210000, 83336
CTUN, 337, 0.00, 0.62, 0.000000, 0.00, 2, 14, 339, 0
ATT, -3.59, -8.44, -0.09, 1.51, 0.00, 125.24, 126.90
CTUN, 337, 0.00, 0.59, 0.000000, 0.00, 2, 12, 339, 0
ATT, 0.00, -8.94, 0.00, 1.22, 0.00, 125.20, 126.90
GPS, 3, 522344000, 1782, 8, 2.36, 37.7509240, -122.4686584, 0.55, 227.23, 0.30, 0.00, 0.210000, 83516
CTUN, 337, 0.00, 0.62, 0.000000, 0.00, 0, 8, 337, 0
ATT, -1.04, -3.28, 7.95, 1.53, 0.00, 125.30, 126.90
CTUN, 338, 0.00, 0.44, 0.000000, 0.00, 0, 4, 338, 0
ATT, -0.05, -0.96, 2.18, 3.49, 0.00, 125.27, 126.90
GPS, 3, 522344200, 1782, 9, 2.30, 37.7509144, -122.4686629, 0.56, 228.81, 0.26, 0.00, 0.330000, 83736
DU32, 7, 270715
CURR, 338, 12717, 0, 0, 4712, 0.000000
CTUN, 337, 0.00, 0.51, 0.000000, 0.00, 1, 0, 338, 0
ATT, 0.00, -2.05, 0.00, 5.74, 0.00, 125.30, 126.90
CTUN, 338, 0.00, 0.50, 0.000000, 0.00, 0, -3, 338, 0
ATT, 0.00, -1.17, 0.00, 3.20, 0.00, 125.45, 126.90
GPS, 3, 522344400, 1782, 9, 2.30, 37.7509067, -122.4686672, 0.55, 230.27, 0.38, 0.00, 0.350000, 83936
CTUN, 340, 0.00, 0.37, 0.000000, 0.00, 0, -8, 340, 0
ATT, 0.02, -0.12, -0.97, 0.45, 0.00, 125.51, 126.90
CTUN, 338, 0.00, 0.45, 0.000000, 0.00, 0, -11, 338, 0
ATT, 2.02, 0.03, -7.18, 0.00, 0.00, 125.45, 126.90
GPS, 3, 522344600, 1782, 10, 2.29, 37.7509072, -122.4686665, 0.51, 230.47, 0.70, 0.00, 0.400000, 84136
CTUN, 338, 0.00, 0.55, 0.000000, 0.00, 0, -13, 338, 0
ATT, 0.18, 0.66, -7.22, -1.69, 0.00, 125.31, 126.90
CTUN, 337, 0.00, 0.46, 0.000000, 0.00, 0, -15, 337, 0
ATT, 0.12, 0.79, -4.15, -4.64, 0.00, 125.07, 126.90
GPS, 3, 522344800, 1782, 10, 2.29, 37.7509071, -122.4686653, 0.48, 230.45, 0.70, 0.00, 0.400000, 84335
CTUN, 337, 0.00, 0.37, 0.000000, 0.00, 0, -15, 337, 0
ATT, 0.10, 0.22, -3.05, -4.39, 0.00, 124.88, 126.90
CTUN, 337, 0.00, 0.42, 0.000000, 0.00, 0, -17, 337, 0
ATT, 0.04, 0.22, -1.21, -1.95, 0.00, 124.74, 126.90
GPS, 3, 522345000, 1782, 10, 2.29, 37.7509048, -122.4686655, 0.43, 230.59, 0.41, 0.00, 0.410000, 84536
CTUN, 337, 0.00, 0.32, 0.000000, 0.00, 0, -18, 337, 0
ATT, 0.04, 0.18, -1.21, -1.09, 0.00, 124.57, 126.90
CTUN, 337, 0.00, 0.39, 0.000000, 0.00, 0, -20, 337, 0
ATT, 0.00, -0.19, 0.00, -0.97, 0.00, 124.50, 126.90
GPS, 3, 522345200, 1782, 9, 2.76, 37.7509066, -122.4686642, 0.38, 229.98, 0.55, 0.00, 0.440000, 84735
DU32, 7, 270715
CURR, 337, 16100, 0, 0, 4732, 0.000000
CTUN, 338, 0.00, 0.28, 0.000000, 0.00, 0, -17, 338, 0
ATT, 0.00, 0.14, 0.00, 0.47, 0.00, 124.49, 126.90
CTUN, 338, 0.00, 0.28, 0.000000, 0.00, 0, -19, 338, 0
ATT, 0.03, 0.69, -0.97, 1.38, 0.00, 124.55, 126.90
GPS, 3, 522345400, 1782, 9, 2.76, 37.7509094, -122.4686631, 0.33, 229.53, 0.54, 0.00, 0.430000, 84935
CTUN, 338, 0.00, 0.28, 0.000000, 0.00, 0, -20, 338, 0
ATT, 0.02, 0.59, -0.72, 0.51, 0.00, 124.66, 126.90
CTUN, 338, 0.00, 0.47, 0.000000, 0.00, 0, -21, 338, 0
ATT, -1.64, -0.23, -1.15, -0.48, 0.00, 124.84, 126.90
GPS, 3, 522345600, 1782, 9, 2.76, 37.7509122, -122.4686627, 0.29, 228.95, 0.63, 0.00, 0.390000, 85135
CTUN, 338, 0.00, 0.13, 0.000000, 0.00, 0, -25, 338, 0
ATT, -1.51, -1.41, -1.51, -1.17, 0.00, 124.96, 126.90
CTUN, 337, 0.00, 0.20, 0.000000, 0.00, 0, -25, 337, 0
ATT, -0.46, -2.21, -0.62, -1.38, 0.00, 125.05, 126.90
GPS, 3, 522345800, 1782, 9, 2.76, 37.7509163, -122.4686630, 0.23, 228.00, 0.63, 0.00, 0.390000, 85335
CTUN, 338, 0.00, 0.27, 0.000000, 0.00, 0, -23, 338, 0
ATT, 0.00, -1.80, 0.00, -0.82, 0.00, 125.16, 126.90
CTUN, 338, 0.00, 0.20, 0.000000, 0.00, 0, -23, 338, 0
ATT, -2.27, -0.89, -0.17, -0.11, 0.00, 125.31, 126.90
GPS, 3, 522346000, 1782, 9, 2.76, 37.7509191, -122.4686619, 0.18, 227.50, 0.65, 0.00, 0.380000, 85535
CTUN, 371, 0.00, 0.00, 0.000000, 0.00, 0, -21, 371, 0
ATT, -2.15, -1.30, -0.04, -0.25, 0.00, 125.57, 126.90
CTUN, 371, 0.00, 0.02, 0.000000, 0.00, 0, -11, 371, 0
ATT, 0.00, -2.06, 0.00, 0.13, 0.00, 125.81, 126.90
GPS, 3, 522346200, 1782, 9, 2.76, 37.7509211, -122.4686620, 0.13, 227.10, 0.86, 0.00, 0.450000, 85735
DU32, 7, 270715
CURR, 371, 19512, 0, 0, 4772, 0.000000
CTUN, 371, 0.00, -0.02, 0.000000, 0.00, 0, 3, 371, 0
ATT, 0.05, -1.02, -3.91, 1.25, 0.00, 126.01, 126.90
CTUN, 371, 0.00, -0.04, 0.000000, 0.00, 0, 15, 371, 0
ATT, 0.21, -0.14, -20.09, -0.12, 0.00, 126.19, 126.90
GPS, 3, 522346400, 1782, 9, 2.76, 37.7509198, -122.4686639, 0.14, 227.14, 0.86, 0.00, 0.450000, 85935
CTUN, 371, 0.00, 0.11, 0.000000, 0.00, 2, 24, 373, 0
ATT, 0.16, 0.35, -19.24, -8.46, 0.00, 126.23, 126.90
CTUN, 371, 0.00, 0.02, 0.000000, 0.00, 8, 35, 379, 0
ATT, 0.28, 0.45, -16.05, -15.58, 0.00, 125.77, 126.90
GPS, 3, 522346600, 1782, 9, 2.76, 37.7509188, -122.4686662, 0.20, 227.12, 0.48, 0.00, 0.290000, 86135
CTUN, 371, 0.00, 0.19, 0.000000, 0.00, 10, 41, 381, 0
ATT, 0.19, 0.28, -15.93, -16.33, 0.00, 126.08, 126.90
CTUN, 370, 0.00, 0.16, 0.000000, 0.00, 9, 41, 379, 0
ATT, -0.39, 0.52, -13.11, -16.10, 0.00, 125.88, 126.90
GPS, 3, 522346800, 1782, 9, 2.76, 37.7509198, -122.4686665, 0.28, 226.95, 0.47, 0.00, 0.260000, 86335
CTUN, 371, 0.00, 0.14, 0.000000, 0.00, 9, 44, 380, 0
ATT, -4.99, 0.64, -8.67, -15.36, 0.00, 125.68, 126.90
CTUN, 371, 0.00, 0.22, 0.000000, 0.00, 6, 48, 377, 0
ATT, -5.63, -0.85, -0.12, -13.08, 0.00, 125.56, 126.90
GPS, 3, 522347000, 1782, 9, 2.76, 37.7509210, -122.4686658, 0.37, 226.55, 0.47, 0.00, 0.260000, 86534
CTUN, 365, 0.00, 0.22, 0.000000, 0.00, 2, 55, 367, 0
ATT, -0.83, -3.39, -0.02, -7.62, 0.00, 125.22, 126.90
CTUN, 276, 0.00, 0.43, 0.000000, 0.00, 0, 58, 276, 0
ATT, -4.67, -2.99, -0.15, -3.07, 0.00, 124.89, 126.90
GPS, 3, 522347200, 1782, 9, 2.76, 37.7509219, -122.4686642, 0.48, 226.19, 0.21, 0.00, 0.270000, 86734
DU32, 7, 270715
CURR, 259, 23187, 0, 0, 4732, 0.000000
CTUN, 259, 0.00, 0.52, 0.000000, 0.00, 0, 41, 259, 0
ATT, -8.63, -1.21, -0.23, -2.36, 0.00, 125.23, 126.90
CTUN, 304, 0.00, 0.70, 0.000000, 0.00, 0, 12, 304, 0
ATT, -8.03, -3.42, -0.13, -2.89, 0.00, 125.84, 126.90
GPS, 3, 522347400, 1782, 9, 2.76, 37.7509218, -122.4686647, 0.53, 225.77, 0.39, 0.00, 0.430000, 86934
CTUN, 309, 0.00, 0.53, 0.000000, 0.00, 1, -10, 310, 0
ATT, -1.43, -7.37, -0.01, -1.70, 0.00, 126.36, 126.90
CTUN, 308, 0.00, 0.56, 0.000000, 0.00, 0, -27, 308, 0
ATT, 0.00, -5.53, 0.00, 0.68, 0.00, 126.50, 126.90
GPS, 3, 522347600, 1782, 10, 2.00, 37.7509214, -122.4686648, 0.49, 225.43, 0.39, 0.00, 0.430000, 87134
CTUN, 308, 0.00, 0.65, 0.000000, 0.00, 0, -43, 308, 0
ATT, 0.00, -0.59, 0.00, 1.50, 0.00, 126.62, 126.90
CTUN, 309, 0.00, 0.49, 0.000000, 0.00, 0, -57, 309, 0
ATT, 10.13, 0.85, 0.02, 0.61, 0.00, 126.67, 126.90
GPS, 3, 522347800, 1782, 10, 2.00, 37.7509212, -122.4686643, 0.39, 225.01, 0.41, 0.00, 0.570000, 87334
CTUN, 309, 0.00, 0.42, 0.000000, 0.00, 0, -70, 309, 0
ATT, 1.62, 2.05, 0.00, 0.46, 0.00, 126.70, 126.90
CTUN, 369, 0.00, 0.33, 0.000000, 0.00, 0, -80, 369, 0
ATT, 0.01, 4.67, 4.27, 1.37, 0.00, 126.97, 126.90
GPS, 3, 522348000, 1782, 10, 2.00, 37.7509211, -122.4686634, 0.23, 224.71, 0.57, 0.00, 0.700000, 87534
CTUN, 369, 0.00, 0.18, 0.000000, 0.00, 0, -77, 369, 0
ATT, 0.00, 1.94, 1.84, 2.67, 0.00, 126.89, 126.90
CTUN, 369, 0.00, 0.24, 0.000000, 0.00, 0, -68, 369, 0
ATT, 0.00, -0.49, 2.53, 3.30, 0.00, 126.75, 126.90
GPS, 3, 522348200, 1782, 10, 2.00, 37.7509219, -122.4686629, 0.08, 224.08, 0.48, 0.00, 0.730000, 87734
DU32, 7, 270715
CURR, 369, 26395, 0, 0, 4752, 0.000000
CTUN, 369, 0.00, 0.20, 0.000000, 0.00, 0, -55, 369, 0
ATT, 4.30, -0.03, 0.01, 2.57, 0.00, 126.60, 126.90
CTUN, 368, 0.00, 0.02, 0.000000, 0.00, 0, -39, 368, 0
ATT, 8.26, 1.76, 0.05, 0.86, 0.00, 126.43, 126.90
GPS, 3, 522348400, 1782, 10, 2.00, 37.7509216, -122.4686635, 0.00, 223.81, 0.38, 0.00, 0.760000, 87934
CTUN, 369, 0.00, -0.12, 0.000000, 0.00, 0, -20, 369, 0
ATT, -0.04, 5.32, 5.07, -0.03, 0.00, 126.27, 126.90
CTUN, 369, 0.00, 0.09, 0.000000, 0.00, 0, -2, 369, 0
ATT, -0.11, 3.98, 10.97, 1.63, 0.00, 126.18, 126.90
GPS, 3, 522348600, 1782, 10, 2.00, 37.7509213, -122.4686635, -0.02, 223.65, 0.43, 0.00, 0.800000, 88134
CTUN, 369, 0.00, 0.03, 0.000000, 0.00, 0, 6, 369, 0
ATT, -0.83, -0.27, 9.12, 5.23, 0.00, 126.07, 126.90
CTUN, 369, 0.00, -0.07, 0.000000, 0.00, 2, 14, 371, 0
ATT, -0.12, -1.37, 7.16, 8.15, 0.00, 125.83, 126.90
GPS, 3, 522348800, 1782, 10, 2.00, 37.7509216, -122.4686629, 0.00, 223.51, 0.28, 0.00, 0.820000, 88333
CTUN, 369, 0.00, 0.07, 0.000000, 0.00, 2, 19, 371, 0
ATT, -0.06, -0.99, 2.99, 8.72, 0.00, 125.61, 126.90
CTUN, 369, 0.00, 0.09, 0.000000, 0.00, 1, 21, 370, 0
ATT, 0.00, -0.97, 0.00, 5.72, 0.00, 125.51, 126.90
GPS, 3, 522349000, 1782, 10, 2.00, 37.7509224, -122.4686629, 0.05, 223.36, 0.05, 0.00, 0.800000, 88533
CTUN, 369, 0.00, 0.04, 0.000000, 0.00, 0, 28, 369, 0
ATT, 0.12, -1.09, -5.50, 2.50, 0.00, 125.49, 126.90
CTUN, 368, 0.00, 0.07, 0.000000, 0.00, 0, 33, 368, 0
ATT, 0.36, -1.22, -15.56, 0.29, 0.00, 125.44, 126.90
GPS, 3, 522349200, 1782, 11, 1.86, 37.7509216, -122.4686635, 0.12, 223.46, 0.34, 0.00, 0.780000, 88733
DU32, 7, 270715
CURR, 369, 30085, 0, 0, 4793, 0.000000
CTUN, 364, 0.00, 0.19, 0.000000, 0.00, 0, 34, 364, 0
ATT, 0.36, -1.09, -16.29, -5.67, 0.00, 125.50, 126.90
CTUN, 369, 0.00, 0.11, 0.000000, 0.00, 4, 37, 373, 0
ATT, 2.67, -1.00, -13.90, -11.86, 0.00, 125.39, 126.90
GPS, 3, 522349400, 1782, 11, 1.86, 37.7509219, -122.4686644, 0.20, 223.54, 0.29, 0.00, 0.730000, 88933
CTUN, 369, 0.00, 0.29, 0.000000, 0.00, 7, 38, 376, 0
ATT, 0.12, -0.80, -5.13, -13.68, 0.00, 125.36, 126.90
CTUN, 369, 0.00, 0.36, 0.000000, 0.00, 4, 40, 373, 0
ATT, 0.00, -0.42, 0.00, -10.70, 0.00, 125.36, 126.90
GPS, 3, 522349600, 1782, 11, 1.86, 37.7509211, -122.4686654, 0.30, 223.75, 0.73, 0.00, 0.700000, 89133
CTUN, 369, 0.00, 0.38, 0.000000, 0.00, 1, 40, 370, 0
ATT, 5.46, -0.31, 0.17, -6.05, 0.00, 124.99, 126.90
CTUN, 369, 0.00, 0.49, 0.000000, 0.00, 0, 39, 369, 0
ATT, 18.39, 1.17, 0.63, -3.37, 0.00, 124.80, 126.90
GPS, 3, 522349800, 1782, 11, 1.86, 37.7509207, -122.4686660, 0.40, 223.62, 0.68, 0.00, 0.590000, 89333
CTUN, 369, 0.00, 0.50, 0.000000, 0.00, 2, 38, 371, 0
ATT, 7.56, 8.26, 0.26, -2.17, 0.00, 124.75, 126.90
CTUN, 369, 0.00, 0.43, 0.000000, 0.00, 5, 44, 374, 0
ATT, -0.11, 12.28, 0.00, -1.22, 0.00, 124.54, 126.90
GPS, 3, 522350000, 1782, 11, 1.86, 37.7509204, -122.4686661, 0.49, 223.47, 0.54, 0.00, 0.650000, 89533
CTUN, 369, 0.00, 0.59, 0.000000, 0.00, 1, 46, 370, 0
ATT, -6.59, 4.79, -0.28, -1.07, 0.00, 124.30, 126.90
CTUN, 369, 0.00, 0.60, 0.000000, 0.00, 0, 48, 369, 0
ATT, -7.07, -1.73, -0.37, -1.05, 0.00, 123.77, 126.90
GPS, 3, 522350200, 1782, 11, 1.86, 37.7509204, -122.4686665, 0.60, 223.24, 0.35, 0.00, 0.680000, 89733
DU32, 7, 270715
CURR, 369, 33792, 0, 0, 4693, 0.000000
CTUN, 369, 0.00, 0.64, 0.000000, 0.00, 0, 47, 369, 0
ATT, -1.67, -3.54, -0.08, -0.59, -1.25, 123.95, 126.72
CTUN, 368, 0.00, 0.73, 0.000000, 0.00, 0, 45, 368, 0
ATT, -2.51, -2.33, -0.13, -0.52, -6.03, 123.75, 124.85
GPS, 3, 522350400, 1782, 11, 1.86, 37.7509198, -122.4686673, 0.71, 223.22, 0.29, 0.00, 0.740000, 89933
CTUN, 369, 0.00, 0.72, 0.000000, 0.00, 0, 45, 369, 0
ATT, -3.23, -0.98, -0.20, -0.63, -7.41, 123.01, 121.70
CTUN, 368, 0.00, 0.64, 0.000000, 0.00, 0, 47, 368, 0
ATT, -6.69, -1.37, -0.62, -0.52, -7.79, 121.50, 118.15
GPS, 3, 522350600, 1782, 11, 1.86, 37.7509208, -122.4686683, 0.80, 223.06, 0.34, 0.00, 0.730000, 90133
CTUN, 366, 0.00, 0.84, 0.000000, 0.00, 0, 46, 366, 0
ATT, -10.58, -2.91, -1.40, -0.36, -5.78, 119.24, 115.09
CTUN, 365, 0.00, 0.95, 0.000000, 0.00, 0, 44, 365, 0
ATT, -8.62, -5.47, -1.54, -0.62, -0.87, 116.61, 113.88
GPS, 3, 522350800, 1782, 11, 1.86, 37.7509237, -122.4686686, 0.91, 222.78, 0.73, 0.00, 0.810000, 90332
CTUN, 365, 0.00, 0.85, 0.000000, 0.00, 2, 42, 367, 0
ATT, -3.08, -7.78, 0.61, -1.14, 0.00, 114.25, 113.84
CTUN, 365, 0.00, 1.00, 0.000000, 0.00, 1, 40, 366, 0
ATT, -3.88, -5.89, 7.35, -0.84, 0.00, 112.31, 113.84
GPS, 3, 522351000, 1782, 10, 1.87, 37.7509244, -122.4686690, 0.99, 222.82, 1.25, 352.58, 0.920000, 90532
CTUN, 365, 0.00, 1.17, 0.000000, 0.00, 0, 41, 365, 0
ATT, -4.13, -3.79, 7.12, 2.06, 0.00, 110.96, 113.84
CTUN, 365, 0.00, 0.94, 0.000000, 0.00, 1, 39, 366, 0
ATT, -4.40, -3.82, 5.78, 5.65, 0.00, 109.76, 113.84
GPS, 3, 522351200, 1782, 10, 1.87, 37.7509260, -122.4686679, 1.09, 222.66, 1.16, 353.33, 0.940000, 90732
DU32, 7, 270715
CURR, 368, 37464, 0, 0, 4752, 0.000000
CTUN, 359, 0.00, 1.10, 0.000000, 0.00, 1, 35, 360, 0
ATT, -1.41, -4.35, 4.39, 5.99, 0.00, 108.99, 113.84
CTUN, 295, 0.00, 1.14, 0.000000, 0.00, 1, 29, 296, 0
ATT, -0.50, -4.40, 1.53, 4.70, 0.00, 108.68, 113.84
GPS, 3, 522351400, 1782, 10, 1.87, 37.7509289, -122.4686680, 1.15, 222.41, 1.10, 358.45, 1.020000, 90932
CTUN, 295, 0.00, 1.23, 0.000000, 0.00, 0, 12, 295, 0
ATT, -0.31, -2.94, 0.99, 3.33, 0.00, 109.19, 113.84
CTUN, 295, 0.00, 1.20, 0.000000, 0.00, 0, -11, 295, 0
ATT, 2.85, -1.07, 5.82, 1.99, 0.00, 109.84, 113.84
GPS, 3, 522351600, 1782, 10, 1.87, 37.7509303, -122.4686679, 1.15, 222.12, 1.47, 358.73, 1.090000, 91132
CTUN, 338, 0.00, 1.34, 0.000000, 0.00, 0, -34, 338, 0
ATT, 1.79, 0.67, 12.46, 2.41, 0.00, 110.41, 113.84
CTUN, 339, 0.00, 1.09, 0.000000, 0.00, 1, -48, 340, 0
ATT, 0.87, 1.41, 11.53, 6.77, 0.00, 111.10, 113.84
GPS, 3, 522351800, 1782, 10, 1.87, 37.7509305, -122.4686692, 1.06, 221.87, 1.19, 358.23, 1.180000, 91332
CTUN, 339, 0.00, 1.05, 0.000000, 0.00, 3, -59, 342, 0
ATT, 0.71, 1.61, 9.45, 10.57, 0.00, 110.97, 113.84
CTUN, 339, 0.00, 1.03, 0.000000, 0.00, 3, -66, 342, 0
ATT, -2.02, 1.21, 6.99, 9.49, 0.00, 110.64, 113.84
GPS, 3, 522352000, 1782, 10, 1.87, 37.7509313, -122.4686699, 0.93, 221.52, 0.86, 358.23, 1.220000, 91532
CTUN, 339, 0.00, 1.00, 0.000000, 0.00, 1, -70, 340, 0
ATT, -1.92, -0.36, 6.54, 6.35, 0.00, 110.37, 113.84
CTUN, 339, 0.00, 0.93, 0.000000, 0.00, 0, -73, 339, 0
ATT, -1.18, -1.72, 4.11, 5.30, 0.00, 110.74, 113.84
GPS, 3, 522352200, 1782, 10, 1.87, 37.7509346, -122.4686699, 0.78, 221.43, 0.76, 358.23, 1.300000, 91732
DU32, 7, 270715
CURR, 339, 40756, 0, 0, 4752, 0.000000
PM, 0, 0, 0, 1000, 10215, 0, 0, 0, 0
CTUN, 338, 0.00, 0.80, 0.000000, 0.00, 0, -76, 338, 0
ATT, 2.35, -1.10, 0.65, 4.98, 0.00, 111.20, 113.84
CTUN, 338, 0.00, 0.75, 0.000000, 0.00, 0, -81, 338, 0
ATT, 1.79, 0.56, 0.50, 2.43, 0.00, 111.16, 113.84
GPS, 3, 522352400, 1782, 10, 1.87, 37.7509397, -122.4686699, 0.61, 221.64, 1.34, 354.92, 1.210000, 91932
CTUN, 403, 0.00, 0.65, 0.000000, 0.00, 0, -81, 403, 0
ATT, 0.00, 1.82, 0.00, -0.10, 0.00, 111.16, 113.84
CTUN, 404, 0.00, 0.65, 0.000000, 0.00, 0, -71, 404, 0
ATT, 0.00, 0.93, 0.00, -0.69, 0.00, 111.38, 113.84
GPS, 3, 522352600, 1782, 10, 1.87, 37.7509437, -122.4686698, 0.47, 222.20, 2.25, 356.21, 0.950000, 92131
CTUN, 403, 0.00, 0.51, 0.000000, 0.00, 0, -54, 403, 0
ATT, 0.00, -0.05, 0.00, -0.46, 0.00, 111.36, 113.84
CTUN, 403, 0.00, 0.50, 0.000000, 0.00, 0, -33, 403, 0
ATT, -1.15, -0.04, -0.31, 0.02, 0.00, 111.52, 113.84
GPS, 3, 522352800, 1782, 10, 2.00, 37.7509482, -122.4686682, 0.39, 222.34, 2.46, 356.84, 0.530000, 92331
CTUN, 403, 0.00, 0.40, 0.000000, 0.00, 0, -11, 403, 0
ATT, -3.94, -0.05, -1.05, 0.57, -1.88, 111.79, 113.66
CTUN, 403, 0.00, 0.39, 0.000000, 0.00, 0, 4, 403, 0
ATT, -1.97, -1.43, -0.52, 0.35, -7.03, 111.91, 111.00
GPS, 3, 522353000, 1782, 10, 2.00, 37.7509509, -122.4686667, 0.39, 222.74, 2.68, 359.64, 0.440000, 92531
CTUN, 403, 0.00, 0.33, 0.000000, 0.00, 0, 22, 403, 0
ATT, 0.00, -1.94, 0.00, 0.86, -7.03, 111.22, 107.77
CTUN, 404, 0.00, 0.39, 0.000000, 0.00, 0, 38, 404, 0
ATT, 2.32, -0.91, -7.62, 1.66, -3.77, 109.87, 105.09
GPS, 3, 522353200, 1782, 10, 2.00, 37.7509542, -122.4686665, 0.46, 222.85, 2.34, 1.79, 0.250000, 92731
DU32, 7, 270715
CURR, 403, 44658, 0, 0, 4752, 0.000000
CTUN, 398, 0.00, 0.42, 0.000000, 0.00, 0, 50, 398, 0
ATT, 6.04, -0.29, -18.01, -0.59, -2.63, 108.24, 103.34
CTUN, 328, 0.00, 0.58, 0.000000, 0.00, 1, 56, 329, 0
ATT, 4.11, 2.22, -18.34, -7.82, 0.00, 106.46, 103.22
GPS, 3, 522353400, 1782, 10, 2.00, 37.7509560, -122.4686672, 0.57, 223.17, 2.28, 0.27, 0.210000, 92931
CTUN, 328, 0.00, 0.66, 0.000000, 0.00, 7, 48, 335, 0
ATT, 5.06, 4.64, -15.81, -14.87, 0.00, 104.46, 103.22
CTUN, 328, 0.00, 0.60, 0.000000, 0.00, 9, 35, 337, 0
ATT, 3.56, 4.33, -12.72, -16.34, 0.00, 103.83, 103.22
GPS, 3, 522353600, 1782 334, 0
ATT, -5.83, 3.48, -10.76, -13.88, 0.00, 103.61, 103.22
CTUN, 329, 0.00, 0.77, 0.000000,0, 0.77, 0.000000, 0.00, 6, 20, 334, 0
ATT, -5.83, 3.48, -10.76, -13.88, 0.00, 103.61, 103.22
CTUN, 329, 0.00, 0.77, 0.000000, 0.00, 4, 4, 333, 0
ATT, -11.32, 0.66, -14.48, -12.12, 0.00, 102.97, 103.22
GPS, 3, 522353800, 1782, 10, 2.00, 37.7509589, -122.4686671, 0.69, 223.58, 1.55, 352.43, 0.050000, 93331
CTUN, 328, 0.00, 0.77, 0.000000, 0.00, 6, -10, 334, 0
ATT, -14.98, -5.98, -11.72, -13.43, 0.00, 102.53, 103.22
CTUN, 328, 0.00, 0.81, 0.000000, 0.00, 10, -21, 338, 0
ATT, -10.05, -11.18, -4.56, -14.30, 0.00, 102.38, 103.22
GPS, 3, 522354000, 1782, 10, 2.00, 37.7509599, -122.4686662, 0.66, 223.78, 1.32, 355.29, -0.040000, 93531
CTUN, 328, 0.00, 0.76, 0.000000, 0.00, 7, -34, 335, 0
ATT, -6.30, -10.61, -0.30, -10.31, 0.00, 102.53, 103.22
CTUN, 329, 0.00, 0.64, 0.000000, 0.00, 2, -44, 331, 0
ATT, -5.92, -7.17, 6.96, -3.83, 0.00, 102.40, 103.22
GPS, 3, 522354200, 1782, 9, 2.06, 37.7509616, -122.4686651, 0.58, 223.85, 1.01, 355.29, -0.1200094730
DU32, 7, 270715
CURR, 289, 51859, 0, 0, 4772, 0, 2.00, 37.7509671, -122.4686599, 0.10, 223.22, 0.51, 355.29, -0.030000, 94730
DU32, 7, 270715
CURR, 289, 51859, 0, 0, 4772, 0.000000
CTUN, 289, 0.00, 0.15, 0.000000, 0.00, 0, 25, 289, 0
ATT, 0.00, 1.08, 0.00, -0.57, 0.00, 86.78, 83.52
CTUN, 224, 0.00, 0.25, 0.000000, 0.00, 0, 7, 224, 0
ATT, 0.00, -0.23, 0.00, -0.31, 0.00, 83.32, 83.52
GPS, 3, 522355400, 1782, 10, 2.00, 37.7509704, -122.4686581, 0.13, 222.71, 0.49, 355.29, 0.090000, 94930
CTUN, 269, 0.00, 0.28, 0.000000, 0.00, 0, -24, 269, 0
ATT, -4.21, -1.23, -4.27, -0.99, 0.00, 81.38, 83.52
CTUN, 269, 0.00, 0.40, 0.000000, 0.00, 0, -58, 269, 0
ATT, -9.11, -1.95, -5.40, -1.55, 0.00, 80.21, 83.52
GPS, 3, 522355600, 1782, 10, 2.00, 37.7509716, -122.4686570, 0.05, 222.46, 0.90, 355.29, 0.280000, 95130
CTUN, 302, 0.00, 0.30, 0.000000, 0.00, 0, -86, 302, 0
ATT, -7.57, -3.93, -0.04, -2.70, 0.00, 79.40, 83.34
CTUN, 303, 0.00, -0.05, 0.000000, 0.00, 0, -62, 303, 0
ATT, -8.71, 2.75, 0.93, 1.51, 0.00, 78.02, 83.34
GPS, 3, 522355800, 1782, 10, 2.00, 37.7509722, -122.4686565, -0.04, 222.25, 0.76, 355.29, 0.350000, 95330
CTUN, 303, 0.00, 0.00, 0.000000, 0.00, 0, 19, 303, 0
ATT, -6.19, -0.76, -0.83, 1.27, 0.00, 75.70, 83.34
CTUN, 303, 0.00, 0.01, 0.000000, 0.00, 0, 26, 303, 0
ATT, -1.23, -5.04, -1.62, -0.36, 0.00, 74.22, 83.34
GPS, 3, 522356000, 1782, 10, 2.00, 37.7509737, -122.4686561, 0.01, 222.10, 0.52, 355.29, 0.400000, 95529
CTUN, 303, 0.00, 0.16, 0.000000, 0.00, 1, 27, 304, 0
ATT, -0.80, -6.34, -1.04, -3.40, 0.00, 74.21, 83.34
CTUN, 298, 0.00, 0.24, 0.000000, 0.00, 0, 14, 298, 0
ATT, 0.00, -3.87, 0.00, -2.96, 0.00, 74.68, 83.34
GPS, 3, 522356200, 1782, 10, 2.00, 37.7509749, -122.4686558, 0.06, 221.92, 0.57, 355.29, 0.420000, 95730
DU32, 7, 270715
CURR, 298, 54718, 0, 0, 4793, 0.000000
CTUN, 298, 0.00, 0.44, 0.000000, 0.00, 0, -7, 298, 0
ATT, 7.03, 0.02, 8.70, -0.81, 2.12, 75.74, 84.05
CTUN, 298, 0.00, 0.37, 0.000000, 0.00, 0, -28, 298, 0
ATT, -7.28, 3.04, 6.25, 200000, 0.00, 0, 0, , 0.000000, 0.00, 0, -25, 399, 0
ATT, 5.19, 1.12, 4.85, 1.41, 0.00, 83.72, 84.14
CTUN, 399, 0.00, 0.21, 0.000000, 0.00, 0, 0, 399, 0
ATT, 5.66, 1.67, 5.19, 2.70, 0.00, 84.25, 84.14
GPS, 3, 522357000, 1782, 11, 1.65, 37.7509735, -122.4686565, -0.05, 222.17, 0.54, 355.29, 0.450000, 96549
CTUN, 398, 0.00, 0.25, 0.000000, 0.00, 1, 17, 399, 0
ATT, 3.54, 3.01, 3.19, 5.20, 0.00, 84.76, 84.14
CTUN, 399, 0.00, 0.37, 0.000000, 0.00, 1, 34, 400, 0
ATT, 10.47, 3.96,1, 0.00, 85.00, 84.14
GPS, 3, 522357400, 1782, 11, 392, 0.00, 0.42, 0.000000, 0.00, 4, 52, 396, 0
ATT, 8.65, 11.06, -9.68, 1.11, 0.00, 85.00, 84.14
GPS, 3, 522357400, 1782, 11, 1.65, 37.7509737, -122.4686590, 0.19, 222.64, 0.98, 355.29, 0.400000, 96949
CTUN, 294, 0.00, 0.60, 0.000000, 0.00, 4, 54, 299, 0
ATT, 4.96, 12.17, -6.08, -4.31, 0.00, 84.11, 84.14
CTUN, 295, 0.00, 0.65, 0.000000, 0.00, 3, 37, 298, 0
ATT, -6.35, 7.52, -12.21, -7.37, 0.00, 84.01, 84.14
GPS, 3, 522357600, 1782, 10, 2.00, 37.7509756, -122.4686601, 0.31, 222.59, 1.10, 355.29, 0.320000, 97149
CTUN, 295, 0.00, 0.79, 0.000000, 0.00, 1, 12, 296, 0
ATT, -8.72, 1.28, -12.00, -8.29, 0.00, 84.71, 84.14
CTUN, 298, 0.00, 0.89, 0.000000, 0.00, 2, -14, 297, 0
ATT, -14.88, -4.63, -13.24, -10.16, 0.00, 85.12, 84.14
GPS, 3, 522357800, 1782, 10, 2.00, 37.7509761, -122.4686606, 0.35, 222.52, 0.65, 355.29, 0.270000, 97348
CTUN, 337, 0.00, 0.90, 0.000000, 0.00, 6, -40, 342, 0
ATT, -11.20, -9.10, -9.79, -11.72, 0.00, 85.70, 84.14
CTUN, 369, 0.00, 0.95, 0.000000, 0.00, 9, -55, 378, 0
ATT, -7.70, -11.19, -6.68, -11.25, 0.00, 85.86, 84.14
GPS, 3, 522358000, 1782, 10, 2.00, 37.7509779, -122.4686605, 0.31, 221.92, 0.57, 355.29, 0.460000, 97549
CTUN, 369, 0.00, 0.86, 0.000000, 0.00, 7, -58, 376, 0
ATT, 0.00, -9.85, 0.00, -8.66, 0.00, 85.53, 84.14
CTUN, 368, 0.00, 0.71, 0.000000, 0.00, 2, -55, 370, 0
ATT, -1.60, -5.37, 1.80, -4.33, 0.00, 85.14, 84.14
DU32, 7, 270715
CURR, 369, 61926, 0, 0, 4793, 0.000000
GPS, 3, 522358200, 1782, 10, 2.00, 37.7509795, -14686578, 0.19, 221.22, 0.39, 355.29, 0.490000, 98149
CTUN00, 85.08, 84.14
GPS, 3, 522358600, 1782, 10, 2.00, 37.7509803, -122.4686578, 0.19, 221.22, 0.39, 355.29, 0.490000, 98149
CTUN, 365, 0.00, 0.71, 0.000000, 0.00, 0, -26, 365, 0
ATT, -0.83, -1.77, 2.66, 2.69, 0.00, 84.85, 84.14
CTUN, 365, 0.00, 0.64, 0.000000, 0.00, 0, -24, 365, 0
ATT, -0.29, -1.38, 2.23, 2.37, 0.00, 84.65, 84.14
GPS, 3, 522358800, 1782, 10, 2.00, 37.7509801, -122.4686570, 0.20, 221.13, 0.23, 355.29, 0.440000, 2.4686560, 0.24, 220.97, 0.40, 355.29, 0RR, 365, 65587, 0, 0, 4654, 0.000000
GPS, 3, 522359200, 1782, 11, 1.65, 37.7509806, -122.4686560, 0.24, 220.97, 0.40, 355.29, 0.480000, 98748
CTUN, 365, 0.00, 0.65, 0.000000, 0.00, 0, -10, 365, 0
ATT, 3.13, 1.85, 2.96, 2.36, 0.00, 83.40, 84.14
CTUN, 365, 0.00, 0.59, 0.000000, 0.00, 0, -7, 365, 0
ATT, 2.02, 2.18, 1.92, 2.71, 0.00, 83.28, 84.14
GPS, 3, 522359400, 1782, 11, 1.65, 37.7509798, -122.4686571, 0.27, 220.90, 0.41, 355.29, 0.530000, 98948
CTUN, 364, 0.00, 0.61, 0.000000,CTUN, 365, 0.00, 0.72, 0.000000, 0.0.00, 0.81, 0.000000, 0.00, 0, -3, 365, 0
ATT, 2.08, 1.49, -2.24, 0.54, 0.00, 83.85, 84.14
CTUN, 365, 0.00, 0.72, 0.000000, 0.00, 0, 0, 365, 0
ATT, 4.64, 1.68, -5.05, -0.97, 0.00, 84.23, 84.14
GPS, 3, 522359800, 1782, 11, 1.65, 37.7509829, -122.4686593, 0.35, 219.91, 1.17, 351.48, 1.100000, 99348
CTUN, 365, 0.00, 0.75, 0.000000, 0.00, 0, 0, 365, 0
ATT, 2.79, 3.31, -3.25, -3.10, 0.00, 84.59, 84.14
CTUN, 366, 0.00, 0.81, 0.000000, 0.00, 1, 3, 366, 0
ATT, -0.65, 3.50, -10, -4.77, 0.00, -5.86, 0.00, 85.98, 84.14
CTUN, 328, 0.00, 0.89, 0.000000, 0.00, 0, -37, 328, 0
ATT, -1.21, -2.21, 1
ATT, 0.00, -4.77, 0.00, -5.86, 0.00, 85.98, 84.14
CTUN, 328, 0.00, 0.89, 0.000000, 0.00, 0, -37, 328, 0
ATT, -1.21, -2.21, 1.39, -2.97, 0.00, 85.85, 84.14
GPS, 3, 522360600, 1782, 11, 1.65, 37.7509835, -122.4686625, 0.46, 219.09, 0.70, 351.48, 1.220000, 100148
CTUN, 328, 0.00, 0.91, 0.000000, 0.00, 0, -50, 328, 0
ATT, -0.75, -0.79, 0.86, -1.16, 0.00, 85.73, 84.14
CTUN, 328, 0.00, 0.87, 0.000000, 0.00, 0, -59, 328, 0
ATT, -0.37, -0.8, 1.65, 37.7509816, -122.4686623, 0.28, 219.07, 0.02, 351.48, 1.130000, 100547
CTUN, 371, 0.00, 0.59, 0. 3, 522361000, 1782, 11, 1.65, 37.7509816, -122.4686623, 0.28, 219.07, 0.02, 351.48, 1.130000, 100547
CTUN, 371, 0.00, 0.59, 0.000000, 0.00, 0, -73, 328, 0
ATT, -3.99, -2.56, 4.17, 0.39, 0.00, 85.43, 84.14
CTUN, 402, 0.00, 0.58, 0.000000, 0.00, 0, -69, 402, 0
ATT, -3.91, -3.90, 4.40, 0.75, 0.00, 85.16, 84.14
DU32, 7, 270715
CURR, 402, 72598, 0, 0, 4752, 0.000000
GPS, 3, 522361200, 1782, 11, 1.65, 37.7509819, -122.4686616, 0.17, 218.78, 0.02, 351.48, 1.130000, 100747
CTUN, 403, 0.00, 0.48, 0.000000, 0.00, 0, -50, 403, 0
ATT, -3.09, -4.18, 3.43, 2.65, 0.00, 84.81, 84.14
CTUN, 398, 0.00, 0.44, 0.000000, 0.00, 1, -31, 398, 0
ATT, 1.97, -3.22, 1.80, 3.68, 0.00, 84.33, 84.14
GPS, 3, 522361400, 1782, 11, 1.65, 37.7509823, -122.4686615, 0.14, 218.47, 0.29, 351.48, 1.260000, 100947
CTUN, 362, 0.00, 0.33, 0.000000, 0.00, 0, -10, 362, 0
ATT, 4.44, -1.71, 4.45, 3.22, 0.00, 8.48, 1.440000, 101347
0.00, 82.89, 84.14
GPS, 3, 522361800, 1782, 10, 2.00, 37.7509851, -122.4686599, 0.22, 217.82, 0.71, 351.48, 1.440000, 101347
CTUN, 362, 9, 84.14
GPS, 3, 522361800, 1782, 10, 2.00, 37.7509851, -122.4686599, 0.22, 217.82, 0.71, 351.48, 1.440000, 101347
CTUN, 362, 0.00, 0.40, 0.000000, 0.00, 3, 21, 366, 0
ATT, 5.71, 6.21, 5.48, 7.46, 0.00, 82.98, 84.14
CTUN, 363, 0.00, 0.54, 0.000000, 0.00, 3, 18, 366, 0
ATT, 0.00, 6.52, 0.00, 7.82, 0.00, 83.13, 84.14
GPS, 3, 522362000, 1782, 10, 2.00, 37.7509867, -122.4686587, 0.28, 217.48, 0.84, 351.48, 1.470000, 101547
CTUN, 363 1.500000, 101747
CTUN, 363, 0.00, 0.48, 0.000000, 0.00, 1, 17, 364, 0
ATT, 5.16, 5.31, -9.76, -4.27, 0.00,7.15, 0.66, 351.48, 1.500000, 101747
CTUN, 363, 0.00, 0.48, 0.000000, 0.00, 1, 17, 364, 0
ATT, 5.16, 5.31, -9.76, -4.27, 0.00, 83.79, 84.14
CTUN, 363, 0.00, 0.48, 0.000000, 0.00, 3, 17, 366, 0
ATT, 1.01, 6.97, -3.39, -6.94, 0.00, 83.97, 84.14
GPS, 3, 522362400, 1782, 10, 2.00, 37.7509872, -122.4686551, 0.39, 216.86, 0.81, 351.48, 1.500000, 101946
CTUN, 363, 0.00, 0.51, 0.000000, 0.00, 2, 16, 365, 0
ATT, -3.08, 3.46, -2.85, -7.62, 0.0.43, 215.80, 0.81, 351.48, 1.670000, 102346
CTUN, 327, 0.00, 0.61, 0.000000, 0.00, 8, -10, 335, 0
ATT, -2.81, -11.02, -2.43, -11.65, 0.00, 85.86, 84.14
CTUN, 327, 0.00, 0.54, 0.000000, 0.00, 4, -22, 331, 0
ATT, -4.46, -7.86, 5.15, -7.59, 0.00, 85.90, 84.14
GPS, 3, 522363000, 1782, 9, 2.08, 37.7509894, -122.468652527, 0
ATT, 4.72, 4, 327, 0
ATT, 10.99, 0.51, 10.08, -0.56, 0.00, 84.36, 84.14
CTUN, 327, 0.00, 0.00, 0.000000, 0.00, 0, 43, 327, 0
ATT, 4.72, 1.86, 4.33, 3.02, 0.00, 84.27, 84.14
GPS, 3, 522363600, 1782, 8, 2.10, 37.7509820, -122.4686599, 0.27, 214.45, 1.33, 283.87, 1.580000, 103145
CTUN, 295, 0.00, 0.19, 0.000000, 0.00, 1, 41, 296, 0
ATT, 0.00, 4.44, 0.00, 7.19, 0.00, 84.48, 84.14
CTUN, 239, 0.00, 0.45, 0.000000, 0.00, 0, 24, 239, 0
ATT, 0.00, 3.86, 0.00, 5.27, 0.00, 83.83, 84.14
GPS, 3, 522363800, 1782, 8, 2.10, 37.7509782, -100, 0, 21, 152, 0
ATT, 0.00, 1.40, 0.00, 0.08, 0.00, 85.52, 84.14
DU32, 7, 270683
CURR, 0, 81820, 0, 0, 4732, 0.000000
GPS, 3, 522364200, 1782, 8, 2.14, 37.7509733, -122.4686717, 0.21, 214.52, 1.57, 241.44, 1.200000, 103744
CTUN, 0, 0.00, 0.26, 0.000000, 0.00, 0, -22, 0, 0
ATT, 0.00, 2.20, 0.00, 0.86, 0.00, 85.93, 85.93
CTUN, 0, 0.00, 0.29, 0.000000, 0.00, 0, -83, 0, 0
ATT, 0.00, 2.46, 0.00, 0.95, 0.00, 86.55, 86.55
GPS, 3, 522364400, 1782, 8, 2.14, 37.7509731, -122.4686717, 0.05, 214.46, 0.85, 241.44, 1.170000, 103944
CTUN, 0, 0.004, 214.40, 0.47, 241.44, 1.130000, 104144
CTUN, 0, 0.00, 0.01, 0.000000, 0.00, 0, -102, 0, 0
ATT, 0.00, 0.60, 0.00, -0.96, 0.00, 87.31, 87.31
CTUN, 0, 0.00, 0.29, 0.000000, 0.00, 0, -134, 0, 0
ATT, 0.00, 0.73, 0.00, -1.13, -0.87, 87.75, 87.75
GPS, 3, 522364800, 1782, 8, 3.06, 37.7509718, -122.4686713, -0.36, 214.60, 0.25, 241.44, 0.990000, 104344
CTUN, 0, 0.00, 0.28, 0.000000, 0.00, 0, -134, 0, 0
ATT, 0.00, 0.64, 0.00, -1.21, -0.50, 88.17, 88.17
CTUN, 0, 0.00, 0.23, 0.000000, 0.00, 0, -127, 0, 0
ATT,04744
CTUN, 0, 0.00, 0.25, 0.000000, 0.00, 0, -122, 0, 0
ATT, 0.00, 0.52, 0.00, -1.36, 0.00, 89.94, 89.94
CTUN, 0, 0.00, 0.33, 0.000000, 0.00, 0, -120, 0, 0
ATT, 0.00, 0.50, 0.00, -1.36, 0.00, 90.39, 90.39
GPS, 3, 522365400, 1782, 9, 2.08, 37.7509701, -122.4686709, -0.85, 215.13, 0.20, 241.44, 0.690000, 104944
CTUN, 0, 0.00, 0.31, 0.000000, 0.00, 0, -118, 0, 0
ATT, 0.00, 0.47, 0.00, -1.36, 0.00, 90.83, 90.83
CTUN, 0, 0.00, 0.21, 0.000000, 0.00, 0, -116, 0, 0
ATT, 0.00, 0.43, 0.00, -1.424686673, -1.06, 214.82, 0.63, 241.44, 0.770000, 105343
CTUN, 0, 0.00, 0.32, 0.000000, 0.00, 0, -112, 0, 0
ATT, .7509726, -122.4686673, -1.06, 214.82, 0.63, 241.44, 0.770000, 105343
CTUN, 0, 0.00, 0.32, 0.000000, 0.00, 0, -112, 0, 0
ATT, 0.00, 0.17, 0.00, -1.69, 0.00, 92.57, 92.57
CTUN, 0, 0.00, 0.29, 0.000000, 0.00, 0, -111, 0, 0
ATT, 0.00, 0.13, 0.00, -1.74, 0.00, 93.00, 93.00
GPS, 3, 522366000, 1782, 9, 2.08, 37.7509732, -122.4686659, -1.13, 214.87, 0.63, 241.44, 0.770000, 105543
CTUN, 0, 0.00, 0.19, 0.000000, 0.00, 0, -109, 0, 0
ATT, 0.00, 0.08,, 214.96, 0.42, 241.44, 0.710000, 105743
CTUN, 0, 0.00, 0.23, 0.000000, 0.00, 0, -105, 0, 0
ATT, 0.00, 0.05, 0.00, -1.80, 0.00, 94.29, 94.29
CTUN, 0, 0.00, 0.20, 0.000000, 0.00, 0, -104, 0, 0
ATT, 0.00, 0.07, 0.00, -1.75, 0.00, 94.72, 94.72
GPS, 3, 522366400, 1782, 9, 2.08, 37.7509722, -122.4686648, -1.25, 215.23, 0.23, 241.44, 0.610000, 105943
CTUN, 0, 0.00, 0.23, 0.000000, 0.00, 0, -102, 0, 0
ATT, 0.00, 0.10, 0.00, -1.69, 0.00, 95.15, 95.15
CTUN, 0, 0. 0, 0.00, 0.32, 0.000000, 0.00, 0, -94, 0, 0
ATT, 0.00, 0.17, 0.00, -1.71, 0.00, 96.83, 96.83
CTUN, 0, 0.00, 0.20, 0.000000, 0.00, 0, -92, 0, 0
ATT, 0.00, 0.16, 0.00, -1.71, 0.00, 97.25, 97.25
GPS, 3, 522367000, 1782, 9, 2.08, 37.7509725, -122.4686619, -1.32, 215.37, 0.27, 241.44, 0.590000, 106543
CTUN, 0, 0.00, 0.18, 0.000000, 0.00, 0, -90, 0, 0
ATT, 0.00, 0.15, 0.00, -1.72, 0.00, 97.67, 97.67
CTUN, 0, 0.00, 0.16, 0.000000, 0.00, 0, -88, 0, 0
ATT, 0.00, 0.11, 0.00, -1.72, 0.00, 98.09, 9, 0, -82, 0, 0
ATT, 0.00, 0.05, 0.00, -1.73, 0.00, 99.32, 99.32
CTUN, 0, 0.00, 0.19, 0.000000, 0.00, 0, -80, 0, 0
ATT, 0.00, 0.01, 0.00, -1.73, 0.00, 99.72, 99.72
MODE, LOITER, 328
GPS, 3, 522367600, 1782, 9, 2.08, 37.7509731, -122.4686593, -1.32, 215.57, 0.27, 241.44, 0.500000, 107143
CTUN, 0, 0.00, 0.13, 0.000000, 0.00, 0, -78, 0, 0
ATT, 0.00, -0.01, 0.00, -1.72, 0.00, 100.13, 100.13
CTUN, 0, 0.00, 0.20, 0.000000, 0.00, 0, -76, 0, 0
ATT, 0.00, 0.00, 0.00, -1.74, 0.00, 100.53, 100.53.56, 0.22, 241.44, 0.470000, 107542
CTUN, 0, 0.00, 0.27, 0.00000 522368000, 1782, 9, 2.08, 37.7509731, -122.4686577, -1.29, 215.56, 0.22, 241.44, 0.470000, 107542
CTUN, 0, 0.00, 0.27, 0.000000, 0.00, 0, -70, 0, 0
ATT, 0.00, -0.02, 0.00, -1.74, 0.00, 101.73, 101.73
CTUN, 0, 0.00, 0.09, 0.000000, 0.00, 0, -67, 0, 0
ATT, 0.00, -0.01, 0.00, -1.74, 0.00, 102.13, 102.13
DU32, 7, 270683
CURR, 0, 81820, 0, 0, 4752, 0.000000
GPS, 3, 522368200, 1782, 9, 2.08, 37.7509730, -122.4686567, -1.26, 215.57, 0.23, 241.4400000, 68800, 1782, 9, 2.08, 37.7509748, -122.4686540, -1.15, 215.14, 0.25, 241.44, 0.490000, 108343
CTUN, 199, 0.00, 0.15, 0.000000, 0.00, 0, -53 9, 2.08, 37.7509748, -122.4686540, -1.15, 215.14, 0.25, 241.44, 0.490000, 108343
CTUN, 199, 0.00, 0.15, 0.000000, 0.00, 0, -53, 199, 0
ATT, 0.00, -0.03, 0.00, -1.80, 0.00, 104.86, 104.18
CTUN, 232, 0.00, 0.27, 0.000000, 0.00, 0, -51, 233, 0
ATT, 0.00, -0.07, 0.00, -1.77, 0.00, 105.23, 104.18
GPS, 3, 522369000, 1782, 10, 1.87, 37.7509750, -122.4686533, -1.10, 214.97, 0.16, 241.44, 0.510000, 108543
CTUN, 232, 0.00, 0.20, 0.004.46, 0.39, 241.44, 0.790000, 108943
CTUN, 268, 0.00, 0.19, 0.000000, 0.00, 1782, 10, 1.87, 37.7509755, -122.4686517, -0.99, 214.46, 0.39, 241.44, 0.790000, 108943
CTUN, 268, 0.00, 0.19, 0.000000, 0.00, 0, -39, 268, 0
ATT, 0.00, -0.52, 0.00, -1.66, 0.00, 105.62, 104.18
CTUN, 268, 0.00, 0.38, 0.000000, 0.00, 0, -36, 268, 0
ATT, 0.00, -0.65, 0.00, -1.54, 0.00, 105.50, 104.18
GPS, 3, 522369600, 1782, 10, 1.87, 37.7509752, -122.4686509, -0.92, 214.37, 0.48, 241.44, 0.930000, 109143
CTUN, 303, 0.00, 0.21, 0.000000, 0.00, 0, -36, 303, 0
ATT, 0.00, -0.65, 0.00, -1.52, 0.00, 105.46, 104.18
CTUN, 334, 0.00, 0.07, 0.000000, 0.00, 0, -30, 334, 0
ATT, 0.00, -0.76, 0.00, -1.47, 0.00, 105.48, 104.18
GPS, 3, 522369800, 1782, 10, 1.87, 37.7509754, -122.4686504, -0.86, 214.14, 0.45, 241.44, 0.950000, 109342
CTUN, 334, 0.00, 0.23, 0.000000, 0.00, 0, -27, 334, 0
ATT, 0.00, -0.86, 0.00, -0.57, 0.00, 105.44, 104.18
CTUN, 334, 0.00, 0.10, 0.000000, 0.00, 0, -19, 334, 0
ATT,
CTUN, 332, 0.00, 0.10, 0.000000, 0.00, 0, -11, 334, 0
ATT, 1.35, 4.09, -3.28, -1.70, 0.00, 104.31, 104.18
GPS, 3, 522370400, 1782, 11, 1 0.00, 0.10, 0.000000, 0.00, 0, -11, 334, 0
ATT, 1.35, 4.09, -3.28, -1.70, 0.00, 104.31, 104.18
GPS, 3, 522370400, 1782, 11, 1.66, 37.7509715, -122.4686501, -0.61, 214.86, 0.46, 241.44, 1.020000, 109942
CTUN, 332, 0.00, 0.37, 0.000000, 0.00, 0, -15, 334, 0
ATT, 1.05, 1.73, -5.00, -2.41, 0.00, 104.08, 104.18
CTUN, 334, 0.00, 0.12, 0.000000, 0.00, 0, -16, 334, 0
ATT, 2.54, 0.73, -14.08, -2.35, 0.00, 103.96, 104.18
GPS, 3, 522370600, 1782, 11, 1.66,180000, 110342
CTUN, 335, 0.00, 0.20, 0.000000, 0.00, 3, -19, 338, 0
ATT, -9703, -122.4686519, -0.49, 214.90, 0.53, 241.44, 1.180000, 110342
CTUN, 335, 0.00, 0.20, 0.000000, 0.00, 3, -19, 338, 0
ATT, -8.06, 2.38, -4.34, -8.93, 0.00, 103.83, 104.18
CTUN, 334, 0.00, 0.12, 0.000000, 0.00, 1, -22, 335, 0
ATT, -16.53, -3.64, -7.11, -5.27, 0.00, 103.51, 104.18
GPS, 3, 522371000, 1782, 10, 1.82, 37.7509701, -122.4686521, -0.46, 214.86, 0.60, 241.44, 1.350000, 110542
CTUN, 331, 0.00, 0.26, 0.000000, 0.00, 2, 71600, 1782, 10, 1.87, 37.7509687, -122.4686554, -0.33, 214.75
ATT, -0.28, -3.45, 1.02, -2.68, 0.00, 98.81, 104.18
GPS, 3, 522371600, 1782, 10, 1.87, 37.7509687, -122.4686554, -0.33, 214.75, 0.60, 241.44, 1.560000, 111142
CTUN, 334, 0.00, 0.16, 0.000000, 0.00, 0, -14, 334, 0
ATT, -1.29, -0.69, 4.53, 0.10, 0.00, 99.42, 104.18
CTUN, 334, 0.00, 0.22, 0.000000, 0.00, 0, -17, 334, 0
ATT, -1.35, -1.12, 2.67, 1.73, 0.00, 99.97, 104.18
GPS, 3, 522371800, 1782, 10, 1.87, 37.7509696, -2.07, 1.14, 2.16, 0.00, 100.82, 104.18
CTUN, 334, 0.00, 0.17, 0.0000, 0.00, 0.07, 0.000000, 0.00, 0, -17, 334, 0
ATT, -0.55, -2.07, 1.14, 2.16, 0.00, 100.82, 104.18
CTUN, 334, 0.00, 0.17, 0.000000, 0.00, 0, -16, 334, 0
ATT, -0.14, -0.95, 0.30, 1.05, 0.00, 101.88, 104.18
GPS, 3, 522372000, 1782, 10, 1.87, 37.7509689, -122.4686563, -0.29, 214.65, 0.73, 241.44, 1.590000, 111542
CTUN, 334, 0.00, 0.00, 0.000000, 0.00, 0, -10, 334, 0
ATT, 0.00, 0.70, 0.00, 0.17, 0.00, 102.80, 104.18
CTUN, 332, 0.00, 0.03, 0.000000, 0.00, .54888, 0.000000, 1.07, 0.00, 0.26, 0.00, 105.14, 104.18
NTUN, 0.00, 0.98, 0.063613, 0.713745, 39.86263, 41.24541, 38.06607, 34.54888, 0.000000, 1.000000, -0.01, -0.05
CTUN, 334, 0.00, 0.05, -0.157400, 0.00, 0, 8, 316, -41
ATT, 0.00, 0.32, 0.00, -0.07, 0.00, 105.29, 104.18
NTUN, 0.11, 0.81, 2.239082, 10.90237, 37.74715, 47.11012, 35.28942, 28.04762, -21.15486, 72.64704, 0.07, -4.41
GPS, 3, 522372600, 1782, 9, 2.08, 37.7509719, -122.4686557, -0.14, 214.30, 0.79, 241.44, 1.560.22, 0.81, 4.845879, 30.44025, 32.34262, 58.57511, , 0, 3, 310, -41
ATT, 0.00, 0.12, 0.00, -0.84, 0.00, 105.17, 104.18
NTUN, 0.22, 0.81, 4.845879, 30.44025, 32.34262, 58.57511, 32.78285, 24.21698, -23.05229, 98.35928, -0.20, -5.87
CTUN, 334, 0.00, 0.07, -0.239199, 0.00, 0, -5, 314, -41
ATT, 0.00, -0.51, 0.00, -2.57, 0.00, 104.77, 104.18
GPS, 3, 522372800, 1782, 9, 2.10, 37.7509724, -122.4686564, -0.11, 214.23, 0.88, 241.44, 1.480000, .72697, 116.8989, 0.36, -5.45
CTUN, 334, 0.00, -0.04, -0.329199, 0.00, 0, 56.17795, 22.89807, 73.51540, 26.50574, 19.47667, -34.72697, 116.8989, 0.36, -5.45
CTUN, 334, 0.00, -0.04, -0.329199, 0.00, 0, 7, 130, -41
ATT, 0.00, 0.30, 0.00, -1.47, 0.00, 103.65, 104.18
NTUN, 0.56, 0.84, 4.018486, 63.00525, 17.54497, 77.06252, 25.90771, 16.13372, -60.53106, 108.4712, 1.94, -6.95
CTUN, 334, 0.00, 0.00, -0.345799, 0.00, 0, 6, 201, -41
ATT, 0.00, 1.03, 0GPS, 3, 522373400, 1782, 9, 2.08, 37.7509765, -122.4686562713, 3.31, -8.10
ATT, 0.00, 0.47, 0.00, -1.71, 0.00, 104.36, 104.18
GPS, 3, 522373400, 1782, 9, 2.08, 37.7509765, -122.4686566, -0.03, 213.86, 0.86, 241.44, 1.480000, 112941
CTUN, 334, 0.00, -0.04, -0.345799, 0.00, 0, 15, 130, -41
NTUN, 0.83, 0.95, -6.929031, 83.58191, -2.315246, 88.65800, 33.85668, 8.540424, -111.0690, 142.1706, 4.16, -9.58
ATT, 0.00, 0.58, 0.00, -1.82, 0.00, 104.66, 104.18
CTUN, 334, 0.00, 0.06, -0.345799, 0.00, 0, 12, 130, -41
NTUN, 0.88, 0.98, -11.070, 93.30692, -16.40231, 93.30692, 37.9, 130, -41
ATT, 0.00, 0.76, 0.00, -1.99, 0.00, 104.94, 104.18
NTUN, 0.94, 1.00, -16.40231, 93.30692, -16.40231, 93.30692, 37.96959, 4.851105, -134.3767, 150.7692, 5.29, -10.41
CTUN, 334, 0.00, -0.05, -0.345799, 0.00, 0, 16, 130, -41
ATT, 0.00, 0.75, 0.00, -2.02, 0.00, 104.84, 104.18
NTUN, 0.99, 1.01, -19.87514, 97.89334, -19.87514, 97.89334, 37.61882, 4.324202, -104.7283, 175.8643, 3.26, -11.35
GPS, 3, 522373800, 1782, 10, 2.000.00, 0.06, -0.345799, 0000, 1782, 10, 2.00, 37.7509772, -122.4686585, 0.07, 214.05, 0.89, 289.69, 1.250000, 113560
CTUN, 334, 0.00, 0.06, -0.345799, 0.00, 0, 14, 130, -41
NTUN, 1.17, 1.05, -30.61658, 113.6690, -30.26773, 112.3739, 41.91602, -0.721191, -125.3276, 211.7206, 4.07, -13.52
ATT, 0.00, 0.95, 0.00, -2.21, 0.00, 103.99, 104.18
CTUN, 334, 0.00, -0.02, -0.345799, 0.00, 0, 18, 130, -41
EV, 18
NTUN, 1.23, 0.90, -34.34811, 118.4374, -33.72850, 116.3009, 42.08220, -2.341455, -135.9572, 215.6667, 1.10, -2.42, 0.00, 0.04, 0.000000, 0.00, 0, 17, 334, 0
ATT, 0.00, 0.94, 0.00, -2.27, 0.00, 103.24, 103.51
CTUN, 334, 0.00, -0.01, 0.000000, 0.00, 0, 23, 334, 0
ATT, 0.00, 1.09, 0.00, -2.88, 0.00, 102.72, 103.51
GPS, 3, 522374400, 1782, 10, 2.00, 37.7509772, -122.4686594, 0.14, 214.12, 0.61, 323.10, 1.170000, 113959
CTUN, 334, 0.00, 0.00, 0.000000, 0.00, 0, 29, 334, 0
ATT, 0.00, 1.36, 0.00, -4.43, 0.00, 102.05, 103.51
CTUN, 334, 0.00, 0.05, 0.000000, 0.00, 0, 37, 334, 0
ATT, 0.00, 1.00, 0.00, -5.18, 0.00, 101.81, 103.51
GPS, 3, 522374600, 1782, 10, 2.0066, -4.96, 0.00, 101.89, 103.51
GPS, 3, 522374800, 1782, 10, 2.00, 37.7509760, -122.4686617, 0.28, 214.39, 0.41, 323.10, 1.020000, 114358
CTUN, 376, 0.00, 0.16, 0.000000, 0.00, 1, 57, 377, 0
ATT, -4.83, 0.85, -0.99, -5.22, 0.00, 101.72, 103.51
CTUN, 376, 0.00, 0.05, 0.000000, 0.00, 1, 66, 377, 0
ATT, -3.86, -1.41, -0.80, -5.55, 0.00, 101.60, 103.51
GPS, 3, 522375000, 1782, 10, 2.00, 37.7509749, -122.4686628, 0.39, 214.46, 0.25, 323.10, 0.990000, 114559
CTUN, 375, 0.00, 0.24, 0.000000, 0.00, 1, 72, 376,8, 5.51, -4.37, 0.00, 101.40, 103.51
DU32, 7, 270715
CURR, 377, 100921, 0, 0, 4834, 0.000000
GP, 78, 376, 0
ATT, -6.99, -3.98, 5.51, -4.37, 0.00, 101.40, 103.51
DU32, 7, 270715
CURR, 377, 100921, 0, 0, 4834, 0.000000
GPS, 3, 522375200, 1782, 10, 2.00, 37.7509746, -122.4686630, 0.54, 214.62, 0.17, 323.10, 0.940000, 114758
CTUN, 376, 0.00, 0.36, 0.000000, 0.00, 1, 83, 377, 0
ATT, -3.28, -4.77, 6.88, -2.50, 0.00, 101.31, 103.51
CTUN, 376, 0.00, 0.39, 0.000000, 0.00, 1, 82, 376, 0
ATT, -3.85, -5.07, 8.02, 1.32, 0.00, , 101.99, 103.51
GPS, 3, 522375800, 1782, 10,75, 0.00, 0.63, 0.000000, 0.00, 0, 79, 375, 0
ATT, -0.19, -3.25, 0.41, 3.60, 0.00, 101.99, 103.51
GPS, 3, 522375800, 1782, 10, 2.00, 37.7509736, -122.4686643, 0.98, 214.81, 0.23, 323.10, 0.850000, 115358
CTUN, 376, 0.00, 0.65, 0.000000, 0.00, 0, 77, 376, 0
ATT, 0.00, -1.93, 0.00, 2.27, 0.00, 102.41, 103.51
CTUN, 375, 0.00, 0.70, 0.000000, 0.00, 0, 75, 376, 0
ATT, 0.00, -0.69, 0.00, -0.23, 0.00, 102.80, 103.51
GPS, 3, 522376000, 1782, 10, 2.00,6, 0.00, 103.03, 103.51
GPS,  103.13, 103.51
CTUN, 376, 0.00, 0.91, 0.000000, 0.00, 0, 73, 376, 0
ATT, 0.00, 0.11, 0.00, -1.36, 0.00, 103.03, 103.51
GPS, 3, 522376400, 1782, 10, 2.00, 37.7509699, -122.4686650, 1.33, 215.93, 0.23, 323.10, 0.490000, 115958
CTUN, 376, 0.00, 0.80, 0.000000, 0.00, 0, 74, 376, 0
ATT, 0.00, 0.19, 0.00, -1.41, 0.00, 102.80, 103.51
CTUN, 376, 0.00, 0.93, 0.000000, 0.00, 0, 74, 376, 0
ATT, 0.00, 0.32, 0.00, -1.37, 0.00, 102.48, 103.51
GPS, 3, 522376600, 1782, 10 0.00, -0.95, 0.00, 101.62, 103.51
GPS, 3, 522376800, 1782, 10, 2.00, 37.7509697, -122.4686664, 1.53, 216.16, 0.53, 323.10, 0.450000, 116357
CTUN, 376, 0.00, 1.12, 0.000000, 0.00, 0, 72, 375, 0
ATT, 0.00, 0.17, 0.00, -0.87, 0.00, 101.16, 103.51
MODE, LOITER, 325
NTUN, 0.00, 0.00, -34.34811, 118.4374, -33.72850, 116.3009, -4.300761, -43.75769, -135.9572, 215.6667, 0.15, -0.88
CTUN, 375, 0.00, 1.09, 2.248000, 0.00, 0, 73, 368, -15
ATT, 0.00, 0.01, 0.00, -1.06, 0.00, 100.75, 103.51
NTUN, 0.00, 0.39, 0.640960, 0.530517, -3.659800, -43.22718, -8.297926, -44.78207, 1.000000, 0.000000, -0.05, 0.01
GPS, 3, 522377000, 1782, 10, 2.00, 37.7509719, -122.4686662, 1.63, 216.04, 1.02, 341.76, 0.540000, 116558
CTUN, 376, 0.00, 1.23, 2.230000, 0.00, 0, 70, 341, -15
ATT, 0.00, -0.10, 0.00, -1.23, 0.00, 100.45, 103.51
NTUN, 0.07, 0.26, 7.160202, 2.000977, 5.552976, -37.28762, -10.21270, -44.72057, 106.1278, 66.39556, -6.77, -2.66
CTUN, 376, 0.00, 1.21, 2.214999, 0.00, 0, 61, 340, -15
ATT, 0.00, -2.33, 0.00, -2.15, 0.00, 100.23, 103.51
NTUN, 0.12, 0.23, 12.10123, 3.247925, 12.10123, -31.77269, -9.293806, -43.08244, 88.48251, 69.14935, -5.78, -3.04
DU32, 7, 270715
CURR, 347, 108342, 0, 0, 4772, 0.000000
GPS, 3, 522377200, 1782, 10, 2.00, 37.7509723, -122.4686671, 1.71, 215.93, 1.02, 341.76, 0.540000, 116758
CTUN, 376, 0.00, 1.30, 2.199999, 0.00, 1, 51, 350, -15
ATT, 0.00, -5.29, 0.00, -3.65, 0.00, 100.66, 103.51
NTUN, 0.15, 0.21, 15.02429, 4.100769, 15.02429, -26.84391, -5.481308, -38.84561, 54.23065, 65.28772, -3.78, -3.18
CTUN, 376, 0.00, 1.33, 2.184999, 0.00, 1, 43, 360, -15
ATT, 0.00, -5.03, 0.00, -4.24, 0.00, 101.48, 103.51
NTUN, 0.17, 0.21, 17.22493, 5.046448, 17.22493, -22.00572, -0.528198, -33.42461, 48.00638, 65.38190, -3.46, -3.21
GPS, 3, 522377400, 1782, 10, 2.00, 37.7509734, -122.4686662, 1.76, 215.86, 0.74, 341.76, 0.630000, 116958
CTUN, 375, 0.00, 1.18, 2.169999, 0.00, 0, 37, 360, -15
ATT, 0.00, -3.14, 0.00, -3.88, 0.00, 101.69, 103.51
NTUN, 0.19, 0.21, 18.47606, 5.867981, 18.4761, 17.65707, 47.29206, -1.56, -2.49
GPS, 3, 522377600, 1782, 10, 2.00, 37.7509720, -122.4686668, 1.78, 216.00, 0.22, 341.76, 0.560000, 117158
CTUN, 376, 0.00, 1.23, 2.139999, 0.00, 0, 32, 364, -15
ATT, 0.00, -2.47, 0.00, -3.88, 0.00, 100.94, 103.51
NTUN, 0.17, 0.13, 16.98824, 4.048645, 16.98824, -12.34580, 7.331067, -17.63288, 2.464691, 31.91840, -0.49, -1.80
CTUN, 376, 0.00, 1.20, 2.124999, 0.00, 0, 31, 367, -15
ATT, 0.00, -1.46, 0.00, -3.25, 0.00, 100.64, 103.51
NTUN, 0.16, 0.06, 16.36234, 2.4358522.4686658, 1.78, 215.88, 0.28, 341.76, 738, 7.740997, 25.24957, -0.72, -1.36
GPS, 3, 522377800, 1782, 10, 2.00, 37.7509713, -122.4686658, 1.78, 215.88, 0.28, 341.76, 0.600000, 117358
CTUN, 376, 0.00, 1.25, 2.109998, 0.00, 0, 30, 366, -15
ATT, 0.00, -0.51, 0.00, -2.55, 0.00, 100.25, 103.51
NTUN, 0.16, 3.59, 16.61362, 0.764343, 16.61362, -9.300297, 5.941245, -11.00420, 17.51282, 21.20543, -1.23, -1.03
CTUN, 376, 0.00, 1.27, 2.094998, 0.00, 0, 28, 370, -15
ATT, 0.00, -0.71, 0.00, -2.14, 0.08, 18.38208, -8.940142, 3.921728, -7.050218, 33.27518, 1.914019, -1.93, 0.21
CTUN, 103.51
NTUN, 0.18, 3.40, 18.38208, -4.648438, 18.38208, -8.940142, 3.921728, -7.050218, 33.27518, 1.914019, -1.93, 0.21
CTUN, 375, 0.00, 1.33, 2.064998, 0.00, 0, 27, 364, -15
ATT, 0.00, -1.83, 0.00, -1.09, 0.00, 99.84, 103.51
NTUN, 0.21, 3.32, 19.47554, -8.004089, 19.47554, -9.629598, 4.078021, -5.998764, 35.04505, -4.964202, -1.96, 0.63
DU32, 7, 270715
CURR, 368, 111985, 0, 0, 4752, 103.51
NTUN, 0.30, 3.20, 24.20993, -18.72656, 24.20993, -18.72656, 4.953994, -9.437924, 52.29186, -42.03974, -2.59, 2.93
CTUN, 376, 0.00, 1.24, 2.004997, 0.00, 0, 20, 375, -15
ATT, 0.00, -2.39, 0.00, 1.91, 0.00, 99.82, 103.51
NTUN, 0.34, 3.18, 26.11232, -21.98083, 26.11232, -21.98083, 6.256328, -12.82309, 51.02390, -41.54272, -2.51, 2.89
GPS, 3, 522378600, 1782, 11, 1.85, 37.7509701, -122.4686629, 1.75, 215.66, 0.51, 341.76, 0.710000, 118157
CTUN, 375, 0.00, 1.10, 1.989997, 0.00, 0, 20, 375, -15
ATT, 0.00, -2.73, 00, 0, 21, 375,1.85, 37.7509695, -122.4686626, 1.72, 215.67, 0.42, 341.76, 0.710000, 118357
CTUN, 376, 0.00, 1.12, 1.959997, 0.00, 0, 21, 375, -15
ATT, 09695, -122.4686626, 1.72, 215.67, 0.42, 341.76, 0.710000, 118357
CTUN, 376, 0.00, 1.12, 1.959997, 0.00, 0, 21, 375, -15
ATT, 0.00, -2.48, 0.00, 2.16, 0.00, 99.62, 103.51
NTUN, 0.42, 3.14, 29.88618, -29.97260, 29.88618, -29.97260, 11.16934, -23.04086, 43.57718, -31.11157, -2.20, 2.21
CTUN, 376, 0.00, 0.98, 1.944997, 0.00, 0, 20, 379, -15
ATT, 0.00, -2.20, 0.00, 2.05, 0.00, 99.51, 103.51
NTUN, 0.44, 3.14, 30.91803, -31.67865, 30.91803, -31.67865, 11.49341, -26.39232, 45.31845, -24.06055, -2.37, 1.82
MODE, STABILIZE, 325
GPS, 3, 522379000, 1782, 11, 1.85, 37.7509690, -122.4686630, 1.69, 215.75, 0.28, 341.76, 0.680000, 118556
CTUN, 375, 0.00, 1.03, 0.000000, 0.00, 0, 21, 375, 0
ATT, 2.89, -2.12, 1.49, 1.69, 0.00, 99.48, 103.51
CTUN, 375, 0.00, 0.97, 0.000000, 0.00, 0, 23, 375, 0
ATT, 9.02, -0.81, 4.62, 1.17, 0.00, 99.67, 103.51
DU32, 7, 270715
CURR, 376, 115711, 0, 0, 4793, 0.000000
GPS, 3, 522379200, 1782, 11, 1.85, 37.7509689, -122.4686635, 1.66, 215.79, 0.28, 341.76, 0.680000, 118756
CTUN, 376, 0.00, 1.06, 0.000000, 0.00, 0, 23, 376, 0
