11

ArduCopter V3.1.2 (ddd4d881)
Free RAM: 1143
APM 2
FMT, 128, 89, FMT, BBnNZ, Type,Length,Name,Format
FMT, 129, 23, PARM, Nf, Name,Value
FMT, 130, 45, GPS, BIHBcLLeeEefI, Status,TimeMS,Week,NSats,HDop,Lat,Lng,RelAlt,Alt,Spd,GCrs,VZ,T
FMT, 131, 31, IMU, Iffffff, TimeMS,GyrX,GyrY,GyrZ,AccX,AccY,AccZ
FMT, 132, 67, MSG, Z, Message
FMT, 25, 25, ATUN, BBfffff, Axis,TuneStep,RateMin,RateMax,RPGain,RDGain,SPGain
FMT, 26, 9, ATDE, cf, Angle,Rate
FMT, 9, 19, CURR, hIhhhf, ThrOut,ThrInt,Volt,Curr,Vcc,CurrTot
FMT, 11, 11, MOT, hhhh, Mot1,Mot2,Mot3,Mot4
FMT, 12, 28, OF, hhBccffee, Dx,Dy,SQual,X,Y,Lat,Lng,Roll,Pitch
FMT, 5, 49, NTUN, Ecffffffffee, WPDst,WPBrg,PErX,PErY,DVelX,DVelY,VelX,VelY,DAcX,DAcY,DRol,DPit
FMT, 4, 25, CTUN, hcefchhhh, ThrIn,SonAlt,BarAlt,WPAlt,DesSonAlt,AngBst,CRate,ThrOut,DCRate
FMT, 15, 21, MAG, hhhhhhhhh, MagX,MagY,MagZ,OfsX,OfsY,OfsZ,MOfsX,MOfsY,MOfsZ
FMT, 6, 19, PM, BBHHIhBHB, RenCnt,RenBlw,NLon,NLoop,MaxT,PMT,I2CErr,INSErr,INAVErr
FMT, 8, 20, CMD, BBBBBeLL, CTot,CNum,CId,COpt,Prm1,Alt,Lat,Lng
FMT, 1, 17, ATT, cccccCC, RollIn,Roll,PitchIn,Pitch,YawIn,Yaw,NavYaw
FMT, 17, 37, INAV, cccfffiiff, BAlt,IAlt,IClb,ACorrX,ACorrY,ACorrZ,GLat,GLng,ILat,ILng
FMT, 3, 6, MODE, Mh, Mode,ThrCrs
FMT, 10, 3, STRT, ,
FMT, 13, 4, EV, B, Id
FMT, 20, 6, D16, Bh, Id,Value
FMT, 21, 6, DU16, BH, Id,Value
FMT, 22, 8, D32, Bi, Id,Value
FMT, 23, 8, DU32, BI, Id,Value
FMT, 24, 8, DFLT, Bf, Id,Value
FMT, 14, 28, PID, Biiiiif, Id,Error,P,I,D,Out,Gain
FMT, 18, 27, CAM, IHLLeccC, GPSTime,GPSWeek,Lat,Lng,Alt,Roll,Pitch,Yaw
FMT, 19, 5, ERR, BB, Subsys,ECode
ATT, 6.03, 7.62, -6.86, -8.16, 0.00, 277.54, 273.17
CTUN, 373, 0.00, 7.03, 0.000000, 0.00, 4, 26, 377, 0
ATT, 5.14, 7.56, -5.07, -8.29, 4.33, 277.67, 274.15
GPS, 3, 588590000, 1783, 8, 1.88, 37.7508736, -122.4688550, 6.93, 240.93, 2.08, 268.24, 0.070000, 45737
DU32, 7, 272761
CURR, 374, 69056, 0, 0, 4834, 0.000000
PM, 0, 0, 0, 1000, 10199, 0, 0, 0, 0
CTUN, 372, 0.00, 6.91, 0.000000, 0.00, 3, 35, 375, 0
ATT, 5.23, 6.54, -5.07, -6.86, 4.33, 277.84, 276.05
CTUN, 373, 0.00, 6.84, 0.000000, 0.00, 2, 27, 374, 0
ATT, 3.81, 5.49, -5.07, -5.49, 3.68, 277.88, 277.72
GPS, 3, 588590200, 1783, 8, 1.88, 37.7508732, -122.4688589, 6.99, 240.75, 1.97, 265.10, 0.020000, 45937
CTUN, 372, 0.00, 7.05, 0.000000, 0.00, 1, 25, 373, 0
ATT, 2.84, 3.80, -5.07, -4.83, 3.79, 278.07, 279.37
CTUN, 372, 0.00, 7.14, 0.000000, 0.00, 1, 26, 372, 0
ATT, 1.59, 1.93, -6.23, -4.64, 3.90, 278.53, 281.05
GPS, 3, 588590400, 1783, 8, 1.88, 37.7508741, -122.4688632, 7.05, 240.62, 2.05, 272.85, -0.070000, 46137
CTUN, 372, 0.00, 7.10, 0.000000, 0.00, 0, 26, 372, 0
ATT, 1.50, 1.05, -6.23, -4.21, 3.68, 279.24, 282.70
CTUN, 372, 0.00, 7.13, 0.000000, 0.00, 0, 23, 372, 0
ATT, 2.04, 1.23, -6.23, -4.38, 3.90, 280.19, 284.37
GPS, 3, 588590600, 1783, 8, 1.88, 37.7508742, -122.4688667, 7.11, 240.48, 1.82, 272.11, -0.150000, 46337
CTUN, 372, 0.00, 6.98, 0.000000, 0.00, 0, 22, 372, 0
ATT, 2.04, 1.44, -6.12, -4.95, 3.90, 281.35, 286.05
CTUN, 372, 0.00, 7.07, 0.000000, 0.00, 1, 19, 373, 0
ATT, 1.95, 1.89, -6.23, -5.55, 4.87, 282.47, 287.93
GPS, 3, 588590800, 1783, 8, 1.88, 37.7508740, -122.4688698, 7.14, 240.23, 1.69, 269.59, -0.090000, 46537
CTUN, 372, 0.00, 7.15, 0.000000, 0.00, 1, 19, 373, 0
ATT, 1.06, 2.37, -3.80, -5.75, 6.18, 283.80, 290.36
CTUN, 372, 0.00, 6.96, 0.000000, 0.00, 0, 17, 372, 0
ATT, 2.04, 2.33, -3.90, -4.26, 4.77, 285.66, 292.93
GPS, 3, 588591000, 1783, 8, 1.88, 37.7508737, -122.4688725, 7.18, 240.05, 1.48, 265.84, -0.090000, 46737
DU32, 7, 272761
CURR, 395, 72786, 0, 0, 4813, 0.000000
CTUN, 395, 0.00, 7.03, 0.000000, 0.00, 0, 17, 395, 0
ATT, 5.59, 2.88, -3.90, -3.45, 3.36, 288.26, 294.69
CTUN, 395, 0.00, 7.09, 0.000000, 0.00, 1, 19, 395, 0
ATT, 6.12, 4.81, -3.90, -3.84, 0.00, 291.16, 295.43
GPS, 3, 588591200, 1783, 8, 1.88, 37.7508736, -122.4688752, 7.20, 239.91, 1.42, 264.61, -0.140000, 46936
CTUN, 394, 0.00, 7.08, 0.000000, 0.00, 2, 28, 395, 0
ATT, 6.03, 6.51, -3.90, -4.11, 0.00, 293.91, 295.43
CTUN, 394, 0.00, 7.11, 0.000000, 0.00, 2, 31, 396, 0
ATT, 3.37, 6.86, 0.00, -4.58, 0.00, 296.45, 295.43
GPS, 3, 588591400, 1783, 8, 1.88, 37.7508737, -122.4688777, 7.24, 239.72, 1.34, 265.45, -0.120000, 47136
CTUN, 389, 0.00, 7.22, 0.000000, 0.00, 2, 39, 391, 0
ATT, 0.00, 6.06, 0.00, -3.93, 0.00, 298.40, 295.43
CTUN, 394, 0.00, 7.28, 0.000000, 0.00, 1, 44, 395, 0
ATT, 0.00, 3.69, 0.00, -2.44, 0.00, 299.69, 295.43
GPS, 3, 588591600, 1783, 8, 1.88, 37.7508738, -122.4688797, 7.32, 239.56, 1.14, 266.19, -0.170000, 47336
CTUN, 383, 0.00, 7.40, 0.000000, 0.00, 0, 53, 383, 0
ATT, 0.00, 1.92, 0.00, -1.54, 0.00, 300.36, 295.43
CTUN, 388, 0.00, 7.39, 0.000000, 0.00, 0, 63, 388, 0
ATT, 0.00, 1.61, 0.00, -1.04, 0.00, 300.50, 295.43
GPS, 3, 588591800, 1783, 7, 2.49, 37.7508741, -122.4688816, 7.45, 239.42, 1.03, 269.64, -0.220000, 47536
CTUN, 372, 0.00, 7.46, 0.000000, 0.00, 0, 65, 373, 0
ATT, 0.00, 1.66, 0.00, -1.00, 0.00, 300.36, 295.43
CTUN, 333, 0.00, 7.40, 0.000000, 0.00, 0, 73, 333, 0
ATT, 0.00, 1.56, 0.00, -1.03, 0.00, 299.97, 295.43
GPS, 3, 588592000, 1783, 7, 2.49, 37.7508746, -122.4688831, 7.59, 239.36, 0.86, 272.02, -0.360000, 47736
DU32, 7, 272761
CURR, 315, 76634, 0, 0, 4813, 0.000000
CTUN, 316, 0.00, 7.54, 0.000000, 0.00, 0, 70, 316, 0
ATT, 0.00, 1.61, 0.00, -1.33, 0.00, 299.28, 295.43
CTUN, 321, 0.00, 7.62, 0.000000, 0.00, 0, 51, 320, 0
ATT, 0.00, 1.39, 0.00, -1.55, 0.00, 298.19, 295.43
GPS, 3, 588592200, 1783, 7, 2.49, 37.7508751, -122.4688843, 7.71, 239.30, 0.71, 275.32, -0.510000, 47936
CTUN, 322, 0.00, 7.57, 0.000000, 0.00, 0, 30, 321, 0
ATT, 0.00, 0.80, 0.00, -1.23, 0.00, 296.96, 295.43
CTUN, 322, 0.00, 7.74, 0.000000, 0.00, 0, 10, 320, 0
ATT, 0.00, 0.30, 0.00, -0.82, 0.00, 295.85, 295.43
GPS, 3, 588592400, 1783, 7, 2.48, 37.7508753, -122.4688849, 7.75, 239.16, 0.55, 278.00, -0.380000, 48136
CTUN, 327, 0.00, 7.62, 0.000000, 0.00, 0, -9, 327, 0
ATT, 0.00, 0.10, 0.00, -0.91, 0.00, 294.99, 295.43
CTUN, 327, 0.00, 7.54, 0.000000, 0.00, 0, -27, 327, 0
ATT, 0.00, 0.03, 0.00, -1.03, 0.00, 294.30, 295.43
GPS, 3, 588592600, 1783, 7, 2.48, 37.7508759, -122.4688855, 7.71, 238.95, 0.68, 301.29, -0.150000, 48336
CTUN, 328, 0.00, 7.56, 0.000000, 0.00, 0, -45, 328, 0
ATT, 0.00, 0.03, 0.00, -0.76, 0.00, 293.80, 295.43
CTUN, 328, 0.00, 7.48, 0.000000, 0.00, 0, -62, 328, 0
ATT, 0.00, 0.00, 0.00, -0.40, 0.00, 293.44, 295.43
GPS, 3, 588592800, 1783, 7, 2.48, 37.7508760, -122.4688857, 7.58, 238.64, 0.50, 301.16, 0.170000, 48535
CTUN, 328, 0.00, 7.25, 0.000000, 0.00, 0, -81, 328, 0
ATT, 0.00, -0.37, 0.00, -0.11, 0.00, 293.24, 295.43
CTUN, 332, 0.00, 7.37, 0.000000, 0.00, 0, -99, 332, 0
ATT, 0.00, -0.68, 0.00, 0.14, 0.00, 293.12, 295.43
GPS, 3, 588593000, 1783, 7, 2.48, 37.7508762, -122.4688860, 7.37, 238.37, 0.43, 306.09, 0.470000, 48735
DU32, 7, 272761
CURR, 339, 79869, 0, 0, 4752, 0.000000
CTUN, 338, 0.00, 7.11, 0.000000, 0.00, 0, -116, 338, 0
ATT, 0.00, -0.54, 0.00, 0.62, 0.00, 293.13, 295.43
CTUN, 339, 0.00, 7.07, 0.000000, 0.00, 0, -132, 339, 0
ATT, 0.00, -0.31, 0.00, 0.89, 0.00, 293.39, 295.43
GPS, 3, 588593200, 1783, 7, 2.48, 37.7508764, -122.4688858, 7.10, 237.96, 0.41, 316.00, 0.810000, 48935
CTUN, 339, 0.00, 6.82, 0.000000, 0.00, 0, -146, 339, 0
ATT, 0.00, -0.82, 0.00, 0.01, 0.00, 294.06, 295.43
CTUN, 345, 0.00, 6.73, 0.000000, 0.00, 0, -159, 345, 0
ATT, 0.00, -1.26, 0.00, -1.63, 0.00, 294.97, 295.43
GPS, 3, 588593400, 1783, 7, 2.48, 37.7508762, -122.4688854, 6.76, 237.52, 0.15, 316.00, 1.130000, 49135
CTUN, 375, 0.00, 6.45, 0.000000, 0.00, 0, -168, 372, 0
ATT, 0.00, -1.60, 3.29, -2.47, 0.00, 295.98, 295.43
CTUN, 378, 0.00, 6.35, 0.000000, 0.00, 0, -167, 372, 0
ATT, 0.00, -1.54, 6.03, -1.18, 0.00, 297.32, 295.43
GPS, 3, 588593600, 1783, 7, 2.48, 37.7508761, -122.4688850, 6.38, 237.02, 0.09, 316.00, 1.400000, 49335
CTUN, 372, 0.00, 5.95, 0.000000, 0.00, 0, -167, 372, 0
ATT, 0.00, -1.68, 5.92, 2.15, 0.00, 299.08, 295.43
CTUN, 372, 0.00, 5.76, 0.000000, 0.00, 0, -172, 372, 0
ATT, 0.00, -2.12, 8.34, 4.22, 0.00, 301.00, 295.43
GPS, 3, 588593800, 1783, 8, 1.88, 37.7508757, -122.4688845, 5.98, 236.51, 0.17, 290.16, 1.650000, 49535
CTUN, 373, 0.00, 5.60, 0.000000, 0.00, 1, -170, 374, 0
ATT, 1.15, -2.04, 11.41, 5.37, 0.00, 302.49, 295.43
CTUN, 371, 0.00, 5.48, 0.000000, 0.00, 1, -167, 372, 0
ATT, 7.89, -0.67, 10.86, 7.43, 0.00, 303.48, 295.43
GPS, 3, 588594000, 1783, 8, 1.88, 37.7508753, -122.4688835, 5.59, 236.00, 0.30, 188.84, 1.670000, 49735
DU32, 7, 272761
CURR, 375, 83460, 0, 0, 4732, 0.000000
CTUN, 372, 0.00, 5.31, 0.000000, 0.00, 2, -166, 375, 0
ATT, 9.05, 1.95, 11.41, 8.00, 0.00, 304.36, 295.43
CTUN, 371, 0.00, 5.18, 0.000000, 0.00, 3, -164, 375, 0
ATT, 8.25, 6.46, 11.41, 7.31, 0.00, 305.09, 295.43
GPS, 3, 588594200, 1783, 8, 1.88, 37.7508747, -122.4688817, 5.21, 235.51, 0.70, 143.12, 1.670000, 49935
CTUN, 373, 0.00, 5.21, 0.000000, 0.00, 4, -160, 377, 0
ATT, 6.92, 9.05, 11.41, 5.42, 0.00, 305.40, 295.43
CTUN, 373, 0.00, 5.08, 0.000000, 0.00, 3, -152, 376, 0
ATT, 0.00, 8.37, 14.48, 5.00, 0.00, 305.59, 295.59
GPS, 3, 588594400, 1783, 8, 1.88, 37.7508736, -122.4688793, 4.88, 234.99, 1.05, 136.21, 1.740000, 50135
CTUN, 372, 0.00, 5.05, 0.000000, 0.00, 2, -145, 374, 0
ATT, 0.00, 4.55, 15.14, 7.25, 0.00, 305.54, 295.64
CTUN, 373, 0.00, 4.94, 0.000000, 0.00, 3, -138, 376, 0
ATT, 0.00, 0.75, 17.45, 9.53, 0.00, 304.95, 295.64
GPS, 3, 588594600, 1783, 8, 1.88, 37.7508725, -122.4688765, 4.59, 234.44, 1.19, 128.49, 1.840000, 50334
CTUN, 372, 0.00, 4.74, 0.000000, 0.00, 4, -138, 376, 0
ATT, 0.00, 0.56, 18.10, 10.55, 0.00, 304.02, 295.64
CTUN, 372, 0.00, 4.61, 0.000000, 0.00, 3, -132, 375, 0
ATT, 0.00, 1.10, 17.56, 10.18, 0.00, 302.83, 295.64
GPS, 3, 588594800, 1783, 8, 1.88, 37.7508698, -122.4688724, 4.33, 233.79, 1.85, 129.78, 2.000000, 50535
CTUN, 372, 0.00, 4.59, 0.000000, 0.00, 4, -129, 376, 0
ATT, 0.00, 0.68, 17.45, 11.07, 0.00, 301.13, 295.64
CTUN, 372, 0.00, 4.47, 0.000000, 0.00, 5, -123, 378, 0
ATT, 0.00, 0.00, 17.45, 12.49, 0.00, 299.04, 295.64
GPS, 3, 588595000, 1783, 7, 2.48, 37.7508681, -122.4688681, 4.09, 233.26, 1.97, 126.60, 1.990000, 50734
DU32, 7, 272761
CURR, 378, 87214, 0, 0, 4752, 0.000000
CTUN, 371, 0.00, 4.44, 0.000000, 0.00, 6, -120, 378, 0
ATT, 0.00, 0.02, 17.56, 12.93, 0.00, 297.04, 295.64
CTUN, 373, 0.00, 4.28, 0.000000, 0.00, 6, -113, 379, 0
ATT, 0.00, 0.59, 17.45, 13.30, 0.00, 295.09, 295.64
GPS, 3, 588595200, 1783, 7, 2.48, 37.7508662, -122.4688633, 3.89, 232.77, 2.14, 124.22, 1.830000, 50934
CTUN, 378, 0.00, 4.20, 0.000000, 0.00, 7, -108, 385, 0
ATT, 0.00, 1.36, 13.82, 14.18, 0.00, 293.39, 295.64
CTUN, 395, 0.00, 3.98, 0.000000, 0.00, 8, -104, 402, 0
ATT, 0.00, 1.61, 13.82, 14.00, 0.00, 292.22, 295.64
GPS, 3, 588595400, 1783, 7, 2.48, 37.7508651, -122.4688582, 3.70, 232.38, 2.26, 120.48, 1.660000, 51134
CTUN, 394, 0.00, 3.80, 0.000000, 0.00, 7, -91, 401, 0
ATT, 0.00, 1.67, 13.82, 13.40, 0.00, 291.62, 295.64
CTUN, 395, 0.00, 3.76, 0.000000, 0.00, 7, -90, 401, 0
ATT, 0.00, 1.98, 13.82, 13.37, 0.00, 291.27, 295.64
GPS, 3, 588595600, 1783, 7, 2.48, 37.7508650, -122.4688537, 3.52, 232.04, 2.05, 116.18, 1.440000, 51334
CTUN, 394, 0.00, 3.60, 0.000000, 0.00, 7, -92, 401, 0
ATT, 0.00, 2.15, 13.82, 13.65, 0.00, 291.18, 295.64
CTUN, 395, 0.00, 3.52, 0.000000, 0.00, 8, -85, 403, 0
ATT, 0.00, 1.82, 13.82, 14.09, 0.00, 291.34, 295.64
GPS, 3, 588595800, 1783, 8, 1.88, 37.7508647, -122.4688483, 3.35, 231.74, 2.29, 109.98, 1.260000, 51534
CTUN, 394, 0.00, 3.46, 0.000000, 0.00, 8, -81, 402, 0
ATT, 0.71, 1.54, 13.82, 14.40, 0.00, 291.49, 295.64
CTUN, 393, 0.00, 3.46, 0.000000, 0.00, 8, -77, 401, 0
ATT, 0.17, 1.80, 13.82, 14.54, 0.00, 291.81, 295.64
GPS, 3, 588596000, 1783, 8, 1.88, 37.7508642, -122.4688419, 3.19, 231.49, 2.69, 105.11, 1.150000, 51734
DU32, 7, 272761
CURR, 404, 91151, 0, 0, 4772, 0.000000
CTUN, 395, 0.00, 3.35, 0.000000, 0.00, 9, -73, 403, 0
ATT, 0.26, 2.03, 13.82, 14.74, 0.00, 292.24, 295.64
CTUN, 395, 0.00, 3.20, 0.000000, 0.00, 9, -68, 404, 0
ATT, 0.17, 1.77, 13.93, 15.20, 0.00, 292.77, 295.64
GPS, 3, 588596200, 1783, 7, 2.48, 37.7508638, -122.4688346, 3.07, 231.33, 3.11, 102.11, 0.900000, 51934
CTUN, 395, 0.00, 3.14, 0.000000, 0.00, 10, -65, 405, 0
ATT, 1.50, 2.16, 12.62, 15.45, 0.00, 293.25, 295.64
CTUN, 389, 0.00, 3.16, 0.000000, 0.00, 9, -63, 398, 0
ATT, 1.68, 3.19, 8.34, 15.13, 0.00, 293.78, 295.64
GPS, 3, 588596400, 1783, 7, 2.48, 37.7508647, -122.4688275, 2.94, 231.19, 3.14, 95.57, 0.730000, 52134
CTUN, 394, 0.00, 3.05, 0.000000, 0.00, 7, -62, 402, 0
ATT, 1.06, 3.38, 4.06, 12.12, -11.94, 294.22, 292.87
CTUN, 394, 0.00, 3.27, 0.000000, 0.00, 3, -46, 397, 0
ATT, 0.00, 4.73, 4.17, 8.01, -12.95, 293.38, 286.97
GPS, 3, 588596600, 1783, 8, 1.88, 37.7508652, -122.4688196, 2.84, 231.06, 3.44, 91.53, 0.590000, 52334
CTUN, 395, 0.00, 3.18, 0.000000, 0.00, 2, -35, 397, 0
ATT, 0.00, 5.86, 4.06, 5.34, -11.94, 290.59, 281.33
CTUN, 393, 0.00, 3.07, 0.000000, 0.00, 1, -28, 396, 0
ATT, 0.00, 5.17, 4.17, 4.10, -9.49, 286.00, 276.55
GPS, 3, 588596800, 1783, 7, 2.48, 37.7508646, -122.4688119, 2.81, 230.97, 3.37, 92.69, 0.440000, 52534
CTUN, 389, 0.00, 3.19, 0.000000, 0.00, 1, -28, 390, 0
ATT, 0.00, 3.43, 4.82, 3.44, -8.93, 280.49, 272.30
CTUN, 393, 0.00, 3.24, 0.000000, 0.00, 0, -26, 395, 0
ATT, -8.06, 2.01, 7.13, 3.55, -6.47, 274.31, 268.73
GPS, 3, 588597000, 1783, 7, 2.48, 37.7508657, -122.4688037, 2.80, 230.86, 3.56, 89.34, 0.410000, 52734
DU32, 7, 272761
CURR, 394, 95146, 0, 0, 4772, 0.000000
CTUN, 394, 0.00, 3.11, 0.000000, 0.00, 0, -25, 393, 0
ATT, -8.71, -1.13, 7.13, 5.31, -6.36, 267.79, 265.82
CTUN, 393, 0.00, 3.09, 0.000000, 0.00, 2, -21, 391, 0
ATT, -5.88, -4.41, 5.37, 6.37, -6.47, 261.29, 262.88
GPS, 3, 588597200, 1783, 8, 1.88, 37.7508673, -122.4687965, 2.79, 230.72, 3.30, 82.69, 0.450000, 52933
CTUN, 394, 0.00, 3.23, 0.000000, 0.00, 2, -18, 396, 0
ATT, -4.24, -5.17, 5.37, 5.61, -5.35, 255.46, 260.24
CTUN, 395, 0.00, 3.04, 0.000000, 0.00, 1, -11, 396, 0
ATT, 0.00, -4.21, 0.00, 4.69, -5.47, 250.97, 257.76
GPS, 3, 588597400, 1783, 7, 2.48, 37.7508682, -122.4687893, 2.80, 230.60, 3.17, 81.27, 0.440000, 53133
CTUN, 389, 0.00, 3.31, 0.000000, 0.00, 0, -8, 389, 0
ATT, 0.00, -1.66, 0.00, 2.45, -3.46, 247.64, 255.79
CTUN, 389, 0.00, 3.25, 0.000000, 0.00, 0, -3, 389, 0
ATT, 0.00, -0.59, 0.00, 1.11, -1.78, 245.24, 254.86
GPS, 3, 588597600, 1783, 7, 2.48, 37.7508694, -122.4687826, 2.83, 230.72, 3.10, 81.81, 0.160000, 53333
CTUN, 394, 0.00, 2.94, 0.000000, 0.00, 0, -1, 394, 0
ATT, 0.00, -0.43, -1.58, 1.17, -0.33, 243.74, 253.74
CTUN, 389, 0.00, 3.11, 0.000000, 0.00, 0, -5, 389, 0
ATT, 0.00, 0.01, -5.59, 1.51, -0.89, 243.01, 253.01
GPS, 3, 588597800, 1783, 8, 1.88, 37.7508704, -122.4687761, 2.85, 230.86, 3.02, 82.62, -0.080000, 53533
CTUN, 394, 0.00, 3.14, 0.000000, 0.00, 0, -6, 394, 0
ATT, 0.00, 0.61, -6.23, -0.20, -1.45, 242.79, 252.35
CTUN, 395, 0.00, 3.24, 0.000000, 0.00, 0, -6, 395, 0
ATT, 0.00, 0.76, -8.13, -3.53, -1.22, 242.83, 251.64
GPS, 3, 588598000, 1783, 8, 1.88, 37.7508711, -122.4687699, 2.87, 231.02, 2.82, 83.76, -0.290000, 53733
DU32, 7, 272761
CURR, 390, 99067, 0, 0, 4813, 0.000000
CTUN, 388, 0.00, 3.16, 0.000000, 0.00, 1, 0, 389, 0
ATT, 0.00, 0.97, -9.19, -5.85, -2.90, 242.88, 250.93
CTUN, 389, 0.00, 3.19, 0.000000, 0.00, 1, -2, 390, 0
ATT, 0.00, 1.35, -9.82, -7.06, -3.90, 242.73, 249.13
GPS, 3, 588598200, 1783, 8, 1.88, 37.7508708, -122.4687641, 2.91, 231.20, 2.67, 88.40, -0.470000, 53933
CTUN, 394, 0.00, 3.25, 0.000000, 0.00, 2, -4, 396, 0
ATT, 0.00, 1.02, -9.71, -7.89, -3.90, 242.29, 247.35
CTUN, 389, 0.00, 3.13, 0.000000, 0.00, 2, -4, 391, 0
ATT, -0.43, 0.66, -9.19, -8.65, -3.90, 241.72, 245.55
GPS, 3, 588598400, 1783, 8, 1.88, 37.7508702, -122.4687589, 2.93, 231.39, 2.40, 91.33, -0.590000, 54133
CTUN, 393, 0.00, 3.31, 0.000000, 0.00, 3, -1, 396, 0
ATT, 0.00, 1.29, -12.67, -8.77, -3.90, 240.84, 243.75
CTUN, 395, 0.00, 3.22, 0.000000, 0.00, 3, 5, 398, 0
ATT, 0.00, 2.01, -12.67, -9.61, -3.79, 239.73, 241.95
GPS, 3, 588598600, 1783, 8, 1.88, 37.7508695, -122.4687536, 2.97, 231.47, 2.32, 95.38, -0.570000, 54333
CTUN, 383, 0.00, 3.19, 0.000000, 0.00, 4, 9, 387, 0
ATT, 0.00, 1.65, -12.04, -10.92, -4.46, 238.18, 240.15
CTUN, 382, 0.00, 3.29, 0.000000, 0.00, 4, 12, 386, 0
ATT, 0.00, 0.23, -12.04, -11.06, -6.92, 236.16, 237.12
GPS, 3, 588598800, 1783, 8, 1.88, 37.7508689, -122.4687483, 3.02, 231.31, 2.16, 96.54, -0.250000, 54533
CTUN, 384, 0.00, 3.14, 0.000000, 0.00, 4, 10, 388, 0
ATT, 0.00, -0.64, -12.14, -10.56, -7.48, 233.71, 233.91
CTUN, 383, 0.00, 3.19, 0.000000, 0.00, 4, 7, 387, 0
ATT, 0.00, -0.80, -12.04, -10.53, -9.93, 230.99, 229.65
GPS, 3, 588599000, 1783, 8, 1.88, 37.7508675, -122.4687439, 3.06, 231.40, 2.09, 104.76, -0.280000, 54733
DU32, 7, 272761
CURR, 387, 102986, 0, 0, 4772, 0.000000
CTUN, 384, 0.00, 3.31, 0.000000, 0.00, 4, 5, 388, 0
ATT, -0.43, -0.84, -12.25, -11.14, -12.39, 227.75, 224.54
CTUN, 378, 0.00, 3.18, 0.000000, 0.00, 5, 0, 388, 0
ATT, -2.07, -1.23, -13.20, -11.89, -12.50, 223.88, 218.89
GPS, 3, 588599200, 1783, 8, 1.88, 37.7508648, -122.4687383, 3.09, 231.21, 2.52, 115.52, 0.000000, 54933
CTUN, 378, 0.00, 3.12, 0.000000, 0.00, 6, -3, 384, 0
ATT, -2.07, -2.27, -13.41, -12.48, -11.50, 219.42, 213.31
CTUN, 373, 0.00, 3.13, 0.000000, 0.00, 6, -10, 379, 0
ATT, -1.52, -3.20, -13.30, -12.91, -10.94, 214.47, 208.19
GPS, 3, 588599400, 1783, 8, 1.88, 37.7508618, -122.4687338, 3.09, 231.21, 2.53, 122.07, -0.020000, 55132
CTUN, 377, 0.00, 3.18, 0.000000, 0.00, 6, -16, 382, 0
ATT, 0.00, -2.79, -13.20, -13.12, -11.50, 208.92, 203.08
CTUN, 372, 0.00, 3.21, 0.000000, 0.00, 6, -25, 378, 0
ATT, 0.00, -2.03, -13.20, -13.17, -9.37, 202.76, 198.23
GPS, 3, 588599600, 1783, 8, 1.88, 37.7508581, -122.4687290, 3.05, 231.10, 2.79, 128.83, 0.110000, 55332
CTUN, 378, 0.00, 3.15, 0.000000, 0.00, 6, -37, 384, 0
ATT, 0.00, -1.69, -13.20, -12.90, -9.60, 196.42, 193.89
CTUN, 377, 0.00, 3.16, 0.000000, 0.00, 6, -41, 383, 0
ATT, -0.43, -0.94, -13.83, -12.43, -9.49, 190.13, 189.56
GPS, 3, 588599800, 1783, 8, 1.88, 37.7508547, -122.4687238, 2.99, 230.96, 2.91, 129.64, 0.260000, 55532
CTUN, 378, 0.00, 3.13, 0.000000, 0.00, 5, -43, 383, 0
ATT, -3.15, -0.44, -13.83, -12.26, -4.80, 184.28, 186.06
CTUN, 377, 0.00, 3.12, 0.000000, 0.00, 5, -43, 382, 0
ATT, -1.52, -1.67, -15.63, -12.44, -0.22, 179.61, 185.88
GPS, 3, 588600000, 1783, 8, 1.88, 37.7508502, -122.4687183, 2.92, 230.85, 3.30, 133.52, 0.270000, 55732
DU32, 7, 272761
CURR, 379, 106818, 0, 0, 4834, 0.000000
PM, 0, 0, 0, 1000, 10187, 0, 0, 0, 0
CTUN, 373, 0.00, 2.94, 0.000000, 0.00, 7, -41, 380, 0
ATT, -1.52, -1.36, -16.69, -14.20, 0.00, 176.72, 185.75
CTUN, 378, 0.00, 2.94, 0.000000, 0.00, 9, -48, 387, 0
ATT, 0.00, -0.41, -22.71, -15.58, 0.00, 175.02, 185.02
GPS, 3, 588600200, 1783, 8, 1.88, 37.7508447, -122.4687119, 2.83, 230.63, 3.87, 135.09, 0.410000, 55932
CTUN, 378, 0.00, 2.85, 0.000000, 0.00, 10, -56, 388, 0
ATT, 0.00, 1.11, -22.71, -16.52, 0.00, 174.33, 184.33
CTUN, 378, 0.00, 2.96, 0.000000, 0.00, 12, -59, 389, 0
ATT, 0.17, 1.93, -22.81, -17.74, 0.00, 174.37, 184.23
GPS, 3, 588600400, 1783, 8, 1.88, 37.7508392, -122.4687048, 2.72, 230.38, 4.12, 134.99, 0.570000, 56132
CTUN, 376, 0.00, 2.87, 0.000000, 0.00, 13, -66, 390, 0
ATT, 1.50, 1.68, -22.71, -18.12, 0.00, 175.12, 184.23
CTUN, 378, 0.00, 2.89, 0.000000, 0.00, 12, -67, 389, 0
ATT, 2.48, 2.30, -22.71, -17.96, 0.00, 175.96, 184.23
GPS, 3, 588600600, 1783, 8, 1.88, 37.7508320, -122.4686972, 2.60, 230.04, 4.68, 137.03, 0.840000, 56332
CTUN, 378, 0.00, 2.80, 0.000000, 0.00, 14, -72, 391, 0
ATT, 3.72, 2.60, -22.71, -19.13, 0.00, 176.84, 184.23
CTUN, 389, 0.00, 2.78, 0.000000, 0.00, 15, -74, 403, 0
ATT, 5.94, 3.72, -23.23, -19.24, 0.00, 177.99, 184.23
GPS, 3, 588600800, 1783, 8, 1.88, 37.7508245, -122.4686893, 2.48, 229.69, 5.01, 138.51, 1.030000, 56532
CTUN, 394, 0.00, 2.74, 0.000000, 0.00, 15, -72, 403, 0
ATT, 12.33, 5.37, -24.40, -18.55, 0.00, 179.24, 184.23
CTUN, 395, 0.00, 2.75, 0.000000, 0.00, 17, -65, 411, 0
ATT, 17.21, 8.16, -24.40, -18.81, 0.00, 180.52, 184.23
GPS, 3, 588601000, 1783, 8, 1.88, 37.7508187, -122.4686809, 2.36, 229.36, 4.91, 135.82, 1.150000, 56731
DU32, 7, 272761
CURR, 413, 110745, 0, 0, 4772, 0.000000
CTUN, 395, 0.00, 2.83, 0.000000, 0.00, 21, -68, 416, 0
ATT, 17.13, 13.17, -24.50, -18.66, 0.00, 181.70, 184.23
CTUN, 389, 0.00, 2.72, 0.000000, 0.00, 24, -59, 413, 0
ATT, 16.68, 15.10, -24.40, -18.88, 0.00, 182.78, 184.23
GPS, 3, 588601200, 1783, 8, 1.88, 37.7508128, -122.4686730, 2.28, 228.99, 4.71, 134.84, 1.320000, 56931
CTUN, 389, 0.00, 2.70, 0.000000, 0.00, 24, -51, 413, 0
ATT, 16.77, 14.32, -24.61, -19.58, 0.00, 183.77, 184.23
CTUN, 394, 0.00, 2.57, 0.000000, 0.00, 27, -54, 421, 0
ATT, 16.77, 15.25, -24.50, -20.28, 0.00, 184.39, 184.23
GPS, 3, 588601400, 1783, 8, 1.88, 37.7508066, -122.4686651, 2.21, 228.65, 4.75, 134.69, 1.400000, 57131
CTUN, 389, 0.00, 2.69, 0.000000, 0.00, 30, -56, 419, 0
ATT, 9.67, 16.60, -13.83, -21.14, 0.00, 184.77, 184.23
CTUN, 405, 0.00, 2.45, 0.000000, 0.00, 27, -50, 421, 0
ATT, 10.02, 14.23, -12.57, -19.76, 0.00, 185.57, 184.23
GPS, 3, 588601600, 1783, 8, 1.88, 37.7508000, -122.4686568, 2.14, 228.39, 4.96, 135.31, 1.310000, 57331
CTUN, 422, 0.00, 2.45, 0.000000, 0.00, 18, -48, 440, 0
ATT, 11.44, 10.41, -12.67, -16.04, 0.00, 186.47, 184.23
CTUN, 422, 0.00, 2.71, 0.000000, 0.00, 13, -37, 435, 0
ATT, 11.36, 10.30, -12.57, -13.19, 0.00, 186.51, 184.23
GPS, 3, 588601800, 1783, 8, 1.88, 37.7507921, -122.4686500, 2.09, 228.13, 4.98, 141.03, 1.230000, 57531
CTUN, 422, 0.00, 2.54, 0.000000, 0.00, 12, -25, 434, 0
ATT, 11.89, 11.03, -14.47, -12.34, 0.00, 185.81, 184.23
CTUN, 422, 0.00, 2.54, 0.000000, 0.00, 12, -10, 434, 0
ATT, 18.55, 11.50, -19.01, -12.62, 0.00, 185.07, 184.23
GPS, 3, 588602000, 1783, 8, 1.88, 37.7507835, -122.4686428, 2.11, 227.89, 5.31, 143.53, 1.150000, 57731
DU32, 7, 272761
CURR, 439, 114988, 0, 0, 4752, 0.000000
CTUN, 422, 0.00, 2.51, 0.000000, 0.00, 19, -5, 441, 0
ATT, 21.74, 14.94, -19.01, -15.39, 0.00, 183.94, 184.23
CTUN, 421, 0.00, 2.39, 0.000000, 0.00, 29, 6, 450, 0
ATT, 18.55, 18.75, -18.38, -17.54, 0.00, 182.99, 184.23
GPS, 3, 588602200, 1783, 8, 1.88, 37.7507766, -122.4686369, 2.15, 227.71, 4.87, 145.14, 1.070000, 57931
CTUN, 422, 0.00, 2.33, 0.000000, 0.00, 34, 9, 456, 0
ATT, 17.57, 19.45, -17.85, -18.03, 0.00, 182.78, 184.23
CTUN, 422, 0.00, 2.28, 0.000000, 0.00, 30, 9, 452, 0
ATT, 11.89, 17.91, -17.95, -17.75, 0.00, 182.76, 184.23
GPS, 3, 588602400, 1783, 8, 1.88, 37.7507693, -122.4686309, 2.20, 227.48, 4.83, 146.40, 1.070000, 58150
CTUN, 422, 0.00, 2.27, 0.000000, 0.00, 27, 16, 449, 0
ATT, 8.34, 15.56, -17.32, -17.97, 0.00, 182.50, 184.23
CTUN, 422, 0.00, 2.36, 0.000000, 0.00, 24, 18, 446, 0
ATT, 9.58, 12.55, -20.91, -18.56, 0.00, 182.28, 184.23
GPS, 3, 588602600, 1783, 8, 1.88, 37.7507617, -122.4686255, 2.25, 227.35, 4.85, 149.06, 0.910000, 58350
CTUN, 422, 0.00, 2.45, 0.000000, 0.00, 23, 25, 445, 0
ATT, 13.57, 11.34, -19.01, -19.86, 0.00, 182.05, 184.23
CTUN, 422, 0.00, 2.25, 0.000000, 0.00, 28, 21, 450, 0
ATT, 9.23, 13.12, -18.59, -21.06, 0.00, 181.87, 184.23
GPS, 3, 588602800, 1783, 8, 1.88, 37.7507523, -122.4686206, 2.31, 227.45, 5.38, 155.16, 0.490000, 58550
CTUN, 417, 0.00, 2.30, 0.000000, 0.00, 27, 20, 444, 0
ATT, 8.25, 12.00, -18.48, -20.70, 0.00, 182.09, 184.23
CTUN, 394, 0.00, 2.49, 0.000000, 0.00, 21, 19, 416, 0
ATT, 7.89, 9.82, -15.63, -19.85, 0.00, 182.20, 184.23
GPS, 3, 588603000, 1783, 8, 1.88, 37.7507437, -122.4686164, 2.36, 227.45, 5.23, 156.80, 0.300000, 58750
DU32, 7, 272761
CURR, 413, 119440, 0, 0, 4772, 0.000000
CTUN, 394, 0.00, 2.68, 0.000000, 0.00, 19, 22, 413, 0
ATT, 7.27, 9.41, -13.20, -18.79, 0.00, 182.01, 184.23
CTUN, 395, 0.00, 2.71, 0.000000, 0.00, 16, 10, 410, 0
ATT, 4.26, 9.32, -9.82, -16.85, 0.00, 182.00, 184.23
GPS, 3, 588603200, 1783, 8, 1.88, 37.7507359, -122.4686123, 2.42, 227.46, 4.89, 157.78, 0.150000, 58949
CTUN, 394, 0.00, 2.99, 0.000000, 0.00, 11, 5, 405, 0
ATT, 4.17, 7.60, -2.64, -13.51, 0.00, 182.25, 184.23
CTUN, 393, 0.00, 2.97, 0.000000, 0.00, 5, 12, 398, 0
ATT, 5.59, 5.33, 0.00, -8.78, 0.00, 182.52, 184.23
GPS, 3, 588603400, 1783, 8, 1.88, 37.7507263, -122.4686066, 2.50, 227.36, 5.48, 156.97, 0.210000, 59149
CTUN, 394, 0.00, 3.19, 0.000000, 0.00, 1, 21, 395, 0
ATT, 6.03, 4.54, 0.00, -2.82, 0.00, 182.66, 184.23
CTUN, 394, 0.00, 3.55, 0.000000, 0.00, 0, 16, 393, 0
ATT, 5.59, 5.04, 2.30, 1.05, 0.00, 182.88, 184.23
GPS, 3, 588603600, 1783, 8, 1.88, 37.7507160, -122.4686010, 2.63, 227.19, 5.88, 157.08, 0.330000, 59349
CTUN, 393, 0.00, 3.45, 0.000000, 0.00, 1, 26, 395, 0
ATT, 5.50, 5.09, 2.30, 3.89, 0.00, 183.40, 184.23
CTUN, 395, 0.00, 3.21, 0.000000, 0.00, 2, 23, 397, 0
ATT, 6.56, 4.80, 1.64, 5.81, 0.00, 183.74, 184.23
GPS, 3, 588603800, 1783, 8, 1.88, 37.7507076, -122.4685964, 2.77, 227.12, 5.45, 157.51, 0.270000, 59549
CTUN, 394, 0.00, 3.30, 0.000000, 0.00, 2, 23, 396, 0
ATT, 6.47, 5.28, 2.41, 6.10, 0.00, 183.61, 184.23
CTUN, 395, 0.00, 3.03, 0.000000, 0.00, 3, 25, 398, 0
ATT, 6.03, 6.80, 2.30, 6.19, 0.00, 183.39, 184.23
GPS, 3, 588604000, 1783, 8, 1.88, 37.7506989, -122.4685920, 2.87, 227.00, 5.34, 158.24, 0.290000, 59749
DU32, 7, 272761
CURR, 397, 123444, 0, 0, 4793, 0.000000
CTUN, 389, 0.00, 3.08, 0.000000, 0.00, 3, 26, 392, 0
ATT, 0.00, 6.98, 0.00, 5.79, 0.00, 183.23, 184.23
CTUN, 372, 0.00, 3.13, 0.000000, 0.00, 1, 25, 373, 0
ATT, 10.02, 3.54, 2.30, 3.98, 0.00, 183.21, 184.23
GPS, 3, 588604200, 1783, 8, 1.88, 37.7506922, -122.4685883, 2.96, 226.89, 4.66, 158.50, 0.340000, 59969
CTUN, 372, 0.00, 3.05, 0.000000, 0.00, 0, 31, 372, 0
ATT, 13.57, 2.27, 2.30, 2.68, 0.00, 183.19, 184.23
CTUN, 373, 0.00, 3.26, 0.000000, 0.00, 2, 32, 375, 0
ATT, 13.13, 9.50, 4.71, 2.95, 0.00, 182.79, 184.23
GPS, 3, 588604400, 1783, 8, 1.88, 37.7506876, -122.4685854, 3.04, 226.61, 3.63, 158.70, 0.570000, 60149
CTUN, 372, 0.00, 3.27, 0.000000, 0.00, 7, 22, 379, 0
ATT, 12.69, 13.79, 6.58, 3.33, 0.00, 182.36, 184.23
CTUN, 371, 0.00, 3.08, 0.000000, 0.00, 6, 13, 377, 0
ATT, 13.66, 12.20, 9.00, 4.14, 0.00, 182.45, 184.23
GPS, 3, 588604600, 1783, 8, 1.88, 37.7506848, -122.4685843, 3.10, 226.45, 2.66, 160.39, 0.630000, 60349
CTUN, 372, 0.00, 3.25, 0.000000, 0.00, 6, 9, 377, 0
ATT, 12.15, 11.84, 9.00, 6.08, 0.00, 182.75, 184.23
CTUN, 373, 0.00, 3.33, 0.000000, 0.00, 8, 7, 380, 0
ATT, 10.02, 13.16, 9.00, 7.47, 0.00, 182.97, 184.23
GPS, 3, 588604800, 1783, 8, 1.88, 37.7506809, -122.4685823, 3.13, 226.15, 2.42, 160.85, 0.810000, 60548
CTUN, 372, 0.00, 3.33, 0.000000, 0.00, 8, 10, 380, 0
ATT, 6.47, 11.96, 12.51, 7.63, 0.00, 183.07, 184.23
CTUN, 366, 0.00, 3.41, 0.000000, 0.00, 5, 5, 371, 0
ATT, 5.05, 8.88, 12.51, 8.79, 0.00, 183.28, 184.23
GPS, 3, 588605000, 1783, 8, 1.88, 37.7506781, -122.4685807, 3.17, 225.71, 1.92, 160.85, 1.090000, 60748
DU32, 7, 272761
CURR, 372, 127232, 0, 0, 4772, 0.000000
CTUN, 366, 0.00, 3.48, 0.000000, 0.00, 5, 1, 372, 0
ATT, 5.14, 6.74, 13.82, 10.51, -0.33, 183.44, 184.19
CTUN, 366, 0.00, 3.50, 0.000000, 0.00, 6, -3, 372, 0
ATT, 5.68, 5.98, 14.37, 11.46, -1.45, 183.42, 183.64
GPS, 3, 588605200, 1783, 8, 1.88, 37.7506732, -122.4685787, 3.20, 225.26, 2.22, 162.35, 1.310000, 60948
CTUN, 366, 0.00, 3.39, 0.000000, 0.00, 6, -10, 372, 0
ATT, 6.47, 5.79, 15.69, 11.53, -0.89, 183.13, 183.12
CTUN, 366, 0.00, 3.52, 0.000000, 0.00, 6, -16, 372, 0
ATT, 9.23, 5.77, 16.24, 12.04, -0.89, 182.69, 182.67
GPS, 3, 588605400, 1783, 8, 1.88, 37.7506724, -122.4685778, 3.20, 225.07, 1.38, 161.78, 1.230000, 61148
CTUN, 367, 0.00, 3.55, 0.000000, 0.00, 7, -21, 374, 0
ATT, 15.35, 7.07, 15.58, 12.85, -0.33, 182.15, 182.30
CTUN, 366, 0.00, 3.56, 0.000000, 0.00, 9, -28, 375, 0
ATT, 15.88, 10.19, 22.39, 13.43, -0.33, 181.61, 182.13
GPS, 3, 588605600, 1783, 8, 1.88, 37.7506705, -122.4685771, 3.19, 225.00, 1.39, 163.33, 1.060000, 61348
CTUN, 367, 0.00, 3.50, 0.000000, 0.00, 14, -34, 380, 0
ATT, 15.00, 13.59, 22.39, 15.55, 0.00, 181.39, 182.09
CTUN, 366, 0.00, 3.62, 0.000000, 0.00, 19, -43, 385, 0
ATT, 14.46, 14.08, 22.28, 18.29, -0.78, 181.41, 181.97
GPS, 3, 588605800, 1783, 8, 1.88, 37.7506696, -122.4685766, 3.15, 224.95, 1.07, 164.36, 0.900000, 61548
CTUN, 366, 0.00, 3.57, 0.000000, 0.00, 21, -50, 388, 0
ATT, 14.55, 13.69, 22.39, 19.35, -1.78, 181.06, 180.92
CTUN, 365, 0.00, 3.54, 0.000000, 0.00, 21, -55, 387, 0
ATT, 10.02, 14.45, 22.39, 19.16, -1.78, 180.29, 180.03
GPS, 3, 588606000, 1783, 8, 1.88, 37.7506697, -122.4685769, 3.09, 224.90, 0.57, 171.06, 0.780000, 61748
DU32, 7, 272761
CURR, 389, 131010, 0, 0, 4732, 0.000000
CTUN, 366, 0.00, 3.64, 0.000000, 0.00, 21, -64, 387, 0
ATT, 7.27, 13.57, 22.39, 19.27, -0.44, 179.49, 179.75
CTUN, 365, 0.00, 3.56, 0.000000, 0.00, 18, -66, 383, 0
ATT, 8.69, 9.94, 22.39, 19.79, 0.00, 178.81, 179.67
GPS, 3, 588606200, 1783, 8, 1.88, 37.7506705, -122.4685777, 3.01, 224.83, 0.37, 171.06, 0.700000, 61948
CTUN, 366, 0.00, 3.67, 0.000000, 0.00, 17, -70, 382, 0
ATT, 8.69, 7.99, 22.28, 20.00, 0.00, 178.22, 179.67
CTUN, 367, 0.00, 3.61, 0.000000, 0.00, 17, -75, 382, 0
ATT, 9.49, 8.22, 24.14, 19.67, 0.00, 177.75, 179.67
GPS, 3, 588606400, 1783, 8, 1.88, 37.7506720, -122.4685791, 2.93, 224.72, 0.83, 225.11, 0.680000, 62148
CTUN, 367, 0.00, 3.49, 0.000000, 0.00, 17, -78, 384, 0
ATT, 9.58, 8.60, 27.21, 19.83, 0.00, 177.36, 179.67
CTUN, 367, 0.00, 3.76, 0.000000, 0.00, 19, -81, 386, 0
ATT, 10.02, 8.52, 26.56, 21.21, 0.00, 177.18, 179.67
GPS, 3, 588606600, 1783, 8, 1.88, 37.7506735, -122.4685807, 2.84, 224.68, 0.97, 277.10, 0.590000, 62348
CTUN, 366, 0.00, 3.62, 0.000000, 0.00, 22, -85, 389, 0
ATT, 14.46, 8.49, 26.56, 22.67, 0.00, 177.02, 179.67
CTUN, 366, 0.00, 3.57, 0.000000, 0.00, 24, -90, 390, 0
ATT, 14.02, 10.13, 26.56, 23.30, 0.00, 176.94, 179.67
GPS, 3, 588606800, 1783, 8, 1.88, 37.7506750, -122.4685827, 2.75, 224.44, 1.21, 294.74, 0.750000, 62547
CTUN, 365, 0.00, 3.54, 0.000000, 0.00, 26, -93, 391, 0
ATT, 13.66, 11.59, 29.74, 23.72, 0.00, 176.91, 179.67
CTUN, 367, 0.00, 3.67, 0.000000, 0.00, 29, -98, 395, 0
ATT, 14.02, 11.50, 29.74, 25.28, 0.00, 176.94, 179.67
GPS, 3, 588607000, 1783, 8, 1.88, 37.7506759, -122.4685847, 2.64, 224.13, 1.16, 298.66, 0.950000, 62747
DU32, 7, 272761
CURR, 399, 134885, 0, 0, 4752, 0.000000
CTUN, 366, 0.00, 3.41, 0.000000, 0.00, 33, -103, 399, 0
ATT, 14.55, 11.70, 29.74, 26.80, 0.00, 176.98, 179.67
CTUN, 366, 0.00, 3.50, 0.000000, 0.00, 35, -110, 401, 0
ATT, 10.02, 12.28, 29.63, 27.13, 0.00, 176.87, 179.67
GPS, 3, 588607200, 1783, 8, 1.88, 37.7506781, -122.4685857, 2.52, 223.69, 1.26, 319.77, 1.250000, 62947
CTUN, 367, 0.00, 3.47, 0.000000, 0.00, 34, -114, 401, 0
ATT, 6.92, 11.10, 29.85, 27.15, 0.00, 176.59, 179.67
CTUN, 367, 0.00, 3.47, 0.000000, 0.00, 33, -115, 400, 0
ATT, 7.27, 8.00, 29.74, 27.54, 0.00, 176.24, 179.67
GPS, 3, 588607400, 1783, 8, 1.88, 37.7506797, -122.4685846, 2.39, 223.33, 1.05, 319.77, 1.400000, 63147
CTUN, 366, 0.00, 3.48, 0.000000, 0.00, 32, -119, 398, 0
ATT, 8.16, 5.97, 29.74, 27.71, 0.00, 175.96, 179.67
CTUN, 366, 0.00, 3.53, 0.000000, 0.00, 31, -119, 398, 0
ATT, 8.25, 5.89, 29.74, 27.47, 0.00, 175.75, 179.67
GPS, 3, 588607600, 1783, 8, 1.88, 37.7506863, -122.4685878, 2.26, 223.07, 2.27, 335.78, 1.420000, 63347
CTUN, 366, 0.00, 3.42, 0.000000, 0.00, 31, -119, 397, 0
ATT, 12.69, 6.30, 29.74, 27.39, 0.00, 175.63, 179.67
CTUN, 366, 0.00, 3.46, 0.000000, 0.00, 32, -124, 398, 0
ATT, 18.19, 7.92, 29.85, 27.62, 0.00, 175.72, 179.67
GPS, 3, 588607800, 1783, 8, 1.88, 37.7506970, -122.4685951, 2.14, 222.93, 4.16, 332.25, 1.320000, 63547
CTUN, 366, 0.00, 3.38, 0.000000, 0.00, 36, -129, 402, 0
ATT, 18.01, 11.90, 29.74, 28.30, 0.00, 176.07, 179.67
CTUN, 367, 0.00, 3.20, 0.000000, 0.00, 43, -137, 410, 0
ATT, 17.57, 15.45, 29.85, 29.19, 0.00, 176.40, 179.67
GPS, 3, 588608000, 1783, 8, 1.88, 37.7507046, -122.4685992, 2.01, 222.63, 4.29, 333.56, 1.360000, 63747
DU32, 7, 272761
CURR, 413, 138890, 0, 0, 4732, 0.000000
CTUN, 366, 0.00, 3.08, 0.000000, 0.00, 46, -147, 412, 0
ATT, 14.55, 16.08, 31.60, 29.65, 0.00, 176.37, 179.67
CTUN, 367, 0.00, 3.07, 0.000000, 0.00, 45, -140, 412, 0
ATT, 12.78, 14.76, 32.26, 29.77, 0.00, 175.99, 179.67
GPS, 3, 588608200, 1783, 8, 1.88, 37.7507121, -122.4686039, 1.83, 222.28, 4.44, 333.47, 1.420000, 63947
CTUN, 373, 0.00, 2.99, 0.000000, 0.00, 47, -139, 420, 0
ATT, 10.02, 13.12, 31.06, 30.83, 0.00, 175.87, 179.67
CTUN, 372, 0.00, 3.02, 0.000000, 0.00, 46, -150, 418, 0
ATT, 10.11, 10.98, 31.06, 31.29, 0.00, 175.94, 179.67
GPS, 3, 588608400, 1783, 8, 1.88, 37.7507233, -122.4686135, 1.67, 221.85, 5.72, 329.36, 1.540000, 64147
CTUN, 371, 0.00, 2.86, 0.000000, 0.00, 45, -147, 417, 0
ATT, 11.80, 9.85, 30.40, 31.18, 0.00, 176.25, 179.67
CTUN, 377, 0.00, 2.71, 0.000000, 0.00, 47, -153, 424, 0
ATT, 17.21, 10.79, 24.69, 31.28, 0.00, 176.79, 179.67
GPS, 3, 588608600, 1783, 8, 1.88, 37.7507384, -122.4686271, 1.49, 221.42, 7.54, 325.85, 1.640000, 64346
CTUN, 411, 0.00, 2.62, 0.000000, 0.00, 52, -156, 463, 0
ATT, 19.97, 13.35, 24.80, 29.80, 0.00, 177.14, 179.67
CTUN, 417, 0.00, 2.71, 0.000000, 0.00, 49, -141, 466, 0
ATT, 19.88, 15.46, 21.73, 27.47, 0.00, 177.07, 179.67
GPS, 3, 588608800, 1783, 8, 1.88, 37.7507518, -122.4686389, 1.31, 220.95, 8.14, 323.96, 1.730000, 64546
CTUN, 417, 0.00, 2.71, 0.000000, 0.00, 44, -125, 461, 0
ATT, 19.52, 16.58, 19.86, 25.17, 0.00, 176.71, 179.67
CTUN, 416, 0.00, 2.57, 0.000000, 0.00, 40, -100, 457, 0
ATT, 17.13, 17.13, 21.07, 23.36, 0.00, 176.39, 179.67
GPS, 3, 588609000, 1783, 8, 1.88, 37.7507650, -122.4686499, 1.24, 220.38, 8.42, 325.37, 1.900000, 64746
DU32, 7, 272761
CURR, 453, 143209, 0, 0, 4772, 0.000000
CTUN, 415, 0.00, 2.50, 0.000000, 0.00, 37, -81, 453, 0
ATT, 14.91, 16.47, 23.59, 22.69, 0.00, 176.07, 179.67
CTUN, 416, 0.00, 2.36, 0.000000, 0.00, 37, -61, 453, 0
ATT, 15.35, 15.46, 23.59, 23.66, 0.00, 175.71, 179.67
GPS, 3, 588609200, 1783, 8, 1.88, 37.7507781, -122.4686596, 1.23, 219.90, 8.44, 327.59, 1.970000, 64946
CTUN, 416, 0.00, 2.37, 0.000000, 0.00, 38, -51, 454, 0
ATT, 15.44, 14.49, 23.48, 24.49, -0.33, 175.33, 179.61
CTUN, 399, 0.00, 2.23, 0.000000, 0.00, 37, -53, 443, 0
ATT, 15.35, 14.12, 22.93, 24.72, -6.36, 174.85, 177.29
GPS, 3, 588609400, 1783, 8, 1.88, 37.7507911, -122.4686705, 1.25, 219.63, 8.51, 326.29, 1.840000, 65146
CTUN, 395, 0.00, 2.17, 0.000000, 0.00, 36, -53, 431, 0
ATT, 14.11, 15.43, 16.79, 24.18, -2.34, 173.99, 175.63
CTUN, 394, 0.00, 2.32, 0.000000, 0.00, 31, -58, 425, 0
ATT, 14.11, 15.11, 14.48, 21.59, -2.90, 172.61, 174.38
GPS, 3, 588609600, 1783, 8, 1.88, 37.7508038, -122.4686822, 1.25, 219.58, 8.53, 323.96, 1.560000, 65346
CTUN, 388, 0.00, 2.52, 0.000000, 0.00, 22, -39, 410, 0
ATT, 12.78, 13.48, 11.96, 17.68, -4.01, 170.87, 172.66
CTUN, 382, 0.00, 2.59, 0.000000, 0.00, 15, -28, 404, 0
ATT, 10.56, 13.11, 11.96, 13.96, -3.90, 169.54, 170.86
GPS, 3, 588609800, 1783, 8, 1.88, 37.7508164, -122.4686932, 1.32, 219.51, 8.43, 323.71, 1.350000, 65546
CTUN, 389, 0.00, 2.67, 0.000000, 0.00, 11, -15, 400, 0
ATT, 4.34, 11.57, 17.45, 11.75, -5.35, 168.26, 167.91
CTUN, 387, 0.00, 2.66, 0.000000, 0.00, 8, -6, 395, 0
ATT, 0.00, 8.07, 22.28, 11.94, -4.91, 166.39, 165.73
GPS, 3, 588610000, 1783, 8, 1.88, 37.7508261, -122.4687026, 1.45, 219.67, 7.78, 322.91, 0.990000, 65746
DU32, 7, 272761
CURR, 397, 147492, 0, 0, 4793, 0.000000
PM, 0, 0, 0, 1000, 10210, 0, 0, 0, 0
CTUN, 389, 0.00, 2.54, 0.000000, 0.00, 9, 5, 398, 0
ATT, 0.00, 3.77, 23.48, 14.84, -4.91, 163.82, 163.64
CTUN, 389, 0.00, 2.59, 0.000000, 0.00, 12, 1, 401, 0
ATT, 0.00, 0.74, 23.04, 17.82, -5.02, 161.04, 161.38
GPS, 3, 588610200, 1783, 8, 1.88, 37.7508334, -122.4687096, 1.58, 219.61, 6.87, 322.57, 0.840000, 65945
CTUN, 388, 0.00, 2.19, 0.000000, 0.00, 16, -7, 404, 0
ATT, 1.95, 0.11, 22.93, 20.20, -4.46, 158.63, 159.25
CTUN, 388, 0.00, 2.22, 0.000000, 0.00, 17, -14, 405, 0
ATT, 3.81, 0.51, 22.93, 20.93, -2.90, 156.36, 157.29
GPS, 3, 588610400, 1783, 8, 1.88, 37.7508414, -122.4687175, 1.64, 219.38, 6.54, 322.17, 0.870000, 66145
CTUN, 389, 0.00, 2.20, 0.000000, 0.00, 21, -31, 410, 0
ATT, 3.72, 1.68, 22.82, 22.70, -2.90, 154.44, 155.95
CTUN, 389, 0.00, 2.06, 0.000000, 0.00, 23, -46, 406, 0
ATT, 2.48, 3.39, 23.04, 23.63, -2.90, 152.95, 154.57
GPS, 3, 588610600, 1783, 8, 1.88, 37.7508463, -122.4687224, 1.62, 219.37, 5.52, 321.98, 0.710000, 66345
CTUN, 389, 0.00, 2.21, 0.000000, 0.00, 23, -60, 412, 0
ATT, 0.00, 2.90, 22.82, 23.15, -2.90, 151.50, 153.22
CTUN, 384, 0.00, 2.33, 0.000000, 0.00, 21, -68, 405, 0
ATT, -7.51, 1.38, 21.84, 22.33, 0.00, 150.35, 151.86
GPS, 3, 588610800, 1783, 8, 1.88, 37.7508521, -122.4687279, 1.55, 219.49, 5.04, 321.73, 0.490000, 66545
CTUN, 389, 0.00, 2.33, 0.000000, 0.00, 18, -70, 407, 0
ATT, -14.70, -1.18, 18.65, 20.89, 0.00, 149.46, 151.86
CTUN, 389, 0.00, 2.38, 0.000000, 0.00, 17, -69, 406, 0
ATT, -14.05, -8.24, 11.96, 18.87, 0.00, 148.69, 151.86
GPS, 3, 588611000, 1783, 8, 1.88, 37.7508588, -122.4687343, 1.50, 219.41, 5.00, 321.53, 0.470000, 66745
DU32, 7, 272761
CURR, 405, 151542, 0, 0, 4772, 0.000000
CTUN, 389, 0.00, 2.61, 0.000000, 0.00, 15, -55, 404, 0
ATT, -8.60, -13.32, 10.09, 13.47, 0.00, 149.40, 151.86
CTUN, 388, 0.00, 2.66, 0.000000, 0.00, 9, -39, 397, 0
ATT, -0.98, -11.03, 8.34, 8.78, 0.00, 150.63, 151.86
GPS, 3, 588611200, 1783, 8, 1.88, 37.7508681, -122.4687388, 1.52, 219.12, 5.36, 327.64, 0.620000, 66945
CTUN, 389, 0.00, 2.49, 0.000000, 0.00, 3, -36, 392, 0
ATT, 0.00, -5.59, 7.13, 6.08, 0.00, 150.80, 151.86
CTUN, 389, 0.00, 2.43, 0.000000, 0.00, 1, -24, 390, 0
ATT, 0.00, -3.43, 7.79, 3.96, 0.00, 150.15, 151.86
GPS, 3, 588611400, 1783, 8, 1.88, 37.7508772, -122.4687407, 1.58, 219.09, 5.43, 334.84, 0.550000, 67145
CTUN, 389, 0.00, 2.40, 0.000000, 0.00, 1, -28, 390, 0
ATT, 0.00, -3.65, 8.34, 3.86, 0.00, 149.67, 151.86
CTUN, 388, 0.00, 2.29, 0.000000, 0.00, 1, -21, 389, 0
ATT, 0.00, -2.63, 9.65, 4.80, 0.00, 149.41, 151.86
GPS, 3, 588611600, 1783, 8, 1.88, 37.7508841, -122.4687416, 1.62, 219.73, 4.75, 339.56, -0.050000, 67345
CTUN, 389, 0.00, 2.21, 0.000000, 0.00, 1, -27, 390, 0
ATT, 0.00, -1.06, 10.20, 6.08, 0.00, 149.19, 151.86
CTUN, 388, 0.00, 2.15, 0.000000, 0.00, 2, -21, 390, 0
ATT, 0.00, 0.14, 10.75, 7.75, 0.00, 148.86, 151.86
GPS, 3, 588611800, 1783, 8, 1.88, 37.7508928, -122.4687484, 1.64, 219.46, 5.29, 335.63, 0.160000, 67544
CTUN, 388, 0.00, 2.12, 0.000000, 0.00, 3, -23, 391, 0
ATT, 0.00, 0.04, 10.86, 9.51, 0.00, 148.49, 151.86
CTUN, 389, 0.00, 2.13, 0.000000, 0.00, 4, -23, 393, 0
ATT, -0.43, 0.28, 10.75, 11.21, 0.00, 148.24, 151.86
GPS, 3, 588612000, 1783, 8, 1.88, 37.7508973, -122.4687512, 1.65, 219.60, 4.49, 333.72, 0.020000, 67744
DU32, 7, 272761
CURR, 394, 155468, 0, 0, 4752, 0.000000
CTUN, 389, 0.00, 2.10, 0.000000, 0.00, 5, -25, 394, 0
ATT, -0.43, 0.95, 10.86, 12.16, 0.00, 148.08, 151.86
CTUN, 389, 0.00, 1.95, 0.000000, 0.00, 6, -33, 395, 0
ATT, 0.00, 0.71, 10.86, 12.93, 0.00, 147.83, 151.86
GPS, 3, 588612200, 1783, 7, 2.48, 37.7508973, -122.4687514, 1.63, 219.92, 3.02, 331.56, -0.240000, 67944
CTUN, 389, 0.00, 1.93, 0.000000, 0.00, 7, -43, 396, 0
ATT, 0.00, 0.14, 10.86, 13.30, 0.00, 147.64, 151.86
CTUN, 389, 0.00, 1.91, 0.000000, 0.00, 6, -51, 395, 0
ATT, -4.79, -0.13, 10.75, 12.73, 0.00, 147.53, 151.86
GPS, 3, 588612400, 1783, 7, 2.48, 37.7508984, -122.4687520, 1.57, 220.01, 2.41, 329.64, -0.290000, 68144
CTUN, 388, 0.00, 1.91, 0.000000, 0.00, 5, -47, 393, 0
ATT, -7.62, -1.62, 10.75, 11.81, 0.00, 147.56, 151.86
CTUN, 388, 0.00, 2.06, 0.000000, 0.00, 5, -39, 393, 0
ATT, -8.17, -5.50, 10.20, 10.75, 0.00, 147.59, 151.86
GPS, 3, 588612600, 1783, 7, 2.48, 37.7508991, -122.4687527, 1.52, 220.06, 2.02, 327.50, -0.290000, 68344
CTUN, 388, 0.00, 2.02, 0.000000, 0.00, 6, -37, 394, 0
ATT, -11.33, -7.81, 9.00, 10.35, 0.00, 147.75, 151.86
CTUN, 389, 0.00, 1.82, 0.000000, 0.00, 7, -38, 396, 0
ATT, -9.15, -8.93, 10.64, 10.02, 0.00, 148.11, 151.86
GPS, 3, 588612800, 1783, 7, 2.48, 37.7508991, -122.4687531, 1.49, 219.94, 1.79, 325.19, -0.180000, 68544
CTUN, 389, 0.00, 1.93, 0.000000, 0.00, 8, -38, 396, 0
ATT, -3.70, -10.11, 12.62, 10.17, 0.00, 148.31, 151.86
CTUN, 389, 0.00, 1.77, 0.000000, 0.00, 7, -38, 396, 0
ATT, -3.15, -7.56, 17.45, 11.00, 0.00, 148.56, 151.86
GPS, 3, 588613000, 1783, 7, 2.48, 37.7508998, -122.4687541, 1.45, 219.70, 1.91, 323.85, 0.010000, 68744
DU32, 7, 272761
CURR, 396, 159415, 0, 0, 4752, 0.000000
CTUN, 389, 0.00, 1.55, 0.000000, 0.00, 7, -46, 396, 0
ATT, -4.24, -4.36, 18.10, 13.74, 0.00, 148.59, 151.86
CTUN, 388, 0.00, 1.57, 0.000000, 0.00, 10, -45, 398, 0
ATT, -4.24, -4.21, 18.21, 15.48, 0.00, 148.50, 151.86
GPS, 3, 588613200, 1783, 8, 1.88, 37.7508997, -122.4687534, 1.37, 219.66, 1.38, 326.83, -0.010000, 68944
CTUN, 388, 0.00, 1.81, 0.000000, 0.00, 10, -39, 398, 0
ATT, -4.79, -5.09, 18.00, 15.72, 0.00, 148.40, 151.86
CTUN, 389, 0.00, 1.73, 0.000000, 0.00, 11, -35, 399, 0
ATT, -12.96, -5.57, 16.90, 16.32, 0.00, 148.42, 151.86
GPS, 3, 588613400, 1783, 8, 1.88, 37.7509005, -122.4687535, 1.34, 219.66, 1.36, 329.86, -0.050000, 69143
CTUN, 394, 0.00, 1.70, 0.000000, 0.00, 14, -31, 408, 0
ATT, -14.70, -8.49, 13.17, 17.12, 0.00, 148.41, 151.86
CTUN, 387, 0.00, 1.62, 0.000000, 0.00, 17, -27, 404, 0
ATT, -15.25, -12.73, 11.41, 16.18, 0.00, 148.76, 151.86
GPS, 3, 588613600, 1783, 8, 1.88, 37.7509019, -122.4687545, 1.32, 219.39, 1.66, 329.85, 0.160000, 69344
CTUN, 389, 0.00, 1.48, 0.000000, 0.00, 16, -23, 404, 0
ATT, -13.51, -13.96, 9.00, 14.27, 0.00, 149.55, 151.86
CTUN, 388, 0.00, 1.60, 0.000000, 0.00, 13, -20, 402, 0
ATT, -9.80, -13.35, 7.68, 11.61, 0.00, 150.56, 151.86
GPS, 3, 588613800, 1783, 8, 1.88, 37.7509038, -122.4687553, 1.30, 219.32, 1.75, 332.35, 0.170000, 69543
CTUN, 388, 0.00, 1.63, 0.000000, 0.00, 8, -13, 396, 0
ATT, 0.00, -10.46, 0.98, 8.74, 0.00, 151.48, 151.86
CTUN, 394, 0.00, 1.74, 0.000000, 0.00, 2, -4, 396, 0
ATT, 0.00, -4.14, 0.43, 4.77, 0.00, 152.16, 151.86
GPS, 3, 588614000, 1783, 8, 1.88, 37.7509067, -122.4687548, 1.32, 219.41, 1.95, 341.73, 0.050000, 69743
DU32, 7, 272761
CURR, 394, 163425, 0, 0, 4813, 0.000000
CTUN, 394, 0.00, 1.76, 0.000000, 0.00, 0, 8, 394, 0
ATT, 0.00, -1.50, 0.54, 1.50, 0.00, 152.02, 151.86
CTUN, 394, 0.00, 1.62, 0.000000, 0.00, 0, 17, 394, 0
ATT, 0.00, -2.33, 0.43, 0.03, 0.00, 151.91, 151.86
GPS, 3, 588614200, 1783, 8, 1.88, 37.7509091, -122.4687536, 1.39, 219.56, 1.90, 351.08, -0.099999, 69943
CTUN, 389, 0.00, 1.58, 0.000000, 0.00, 0, 25, 389, 0
ATT, 0.00, -1.98, 0.54, -0.16, 0.00, 152.05, 151.86
CTUN, 389, 0.00, 1.58, 0.000000, 0.00, 0, 31, 389, 0
ATT, 0.00, -0.26, 0.00, -0.27, 0.00, 152.42, 151.86
GPS, 3, 588614400, 1783, 8, 1.88, 37.7509110, -122.4687529, 1.47, 219.74, 1.74, 353.00, -0.210000, 70143
CTUN, 388, 0.00, 1.63, 0.000000, 0.00, 0, 34, 388, 0
ATT, 0.00, 0.34, 0.43, -0.76, 0.00, 152.78, 151.86
CTUN, 387, 0.00, 1.61, 0.000000, 0.00, 0, 40, 388, 0
ATT, 0.00, 0.14, 0.54, -0.79, 0.00, 152.91, 151.86
GPS, 3, 588614600, 1783, 8, 1.88, 37.7509123, -122.4687530, 1.57, 220.12, 1.51, 346.51, -0.510000, 70343
CTUN, 394, 0.00, 1.66, 0.000000, 0.00, 0, 46, 394, 0
ATT, 0.00, 0.18, 0.43, -0.10, 0.00, 152.79, 151.86
CTUN, 393, 0.00, 1.67, 0.000000, 0.00, 0, 50, 393, 0
ATT, 0.00, 0.58, 0.43, 0.54, 0.00, 152.53, 151.86
GPS, 3, 588614800, 1783, 7, 2.48, 37.7509132, -122.4687525, 1.68, 220.30, 1.27, 346.90, -0.560000, 70543
CTUN, 389, 0.00, 1.64, 0.000000, 0.00, 0, 55, 389, 0
ATT, 0.00, 0.48, 0.43, 0.99, 0.00, 152.25, 151.86
CTUN, 389, 0.00, 1.67, 0.000000, 0.00, 0, 55, 389, 0
ATT, 0.00, -0.19, 0.43, 1.23, 0.00, 151.89, 151.86
GPS, 3, 588615000, 1783, 7, 2.48, 37.7509135, -122.4687532, 1.79, 220.69, 1.05, 339.73, -0.840000, 70742
DU32, 7, 272761
CURR, 389, 167333, 0, 0, 4732, 0.000000
CTUN, 389, 0.00, 1.76, 0.000000, 0.00, 0, 54, 389, 0
ATT, 0.00, -0.65, 0.54, 1.77, 0.00, 151.44, 151.86
CTUN, 389, 0.00, 1.95, 0.000000, 0.00, 0, 54, 389, 0
ATT, 0.00, -1.06, 0.43, 2.29, 0.00, 150.84, 151.86
GPS, 3, 588615200, 1783, 7, 2.48, 37.7509131, -122.4687538, 1.90, 221.00, 0.86, 339.73, -0.970000, 70943
CTUN, 394, 0.00, 1.96, 0.000000, 0.00, 0, 54, 395, 0
ATT, 0.00, -0.88, 0.54, 2.45, 2.81, 150.25, 152.01
CTUN, 388, 0.00, 2.02, 0.000000, 0.00, 0, 55, 388, 0
ATT, 0.00, -0.39, 0.54, 2.24, 12.57, 150.08, 155.22
GPS, 3, 588615400, 1783, 7, 2.48, 37.7509129, -122.4687543, 2.03, 221.33, 0.72, 339.73, -1.020000, 71142
CTUN, 389, 0.00, 2.09, 0.000000, 0.00, 0, 58, 389, 0
ATT, 0.00, -0.98, 0.43, 2.20, 14.53, 151.46, 161.29
CTUN, 387, 0.00, 2.00, 0.000000, 0.00, 0, 64, 387, 0
ATT, 0.00, -1.63, 0.43, 1.52, 16.15, 155.12, 165.12
GPS, 3, 588615600, 1783, 7, 2.48, 37.7509133, -122.4687549, 2.16, 221.56, 0.79, 339.73, -1.000000, 71342
CTUN, 389, 0.00, 2.08, 0.000000, 0.00, 0, 66, 389, 0
ATT, 0.00, -1.39, 0.43, 0.91, 18.00, 160.29, 170.29
CTUN, 388, 0.00, 2.01, 0.000000, 0.00, 0, 63, 388, 0
ATT, 0.00, -0.28, 0.54, 0.74, 18.65, 166.50, 176.50
GPS, 3, 588615800, 1783, 7, 2.48, 37.7509133, -122.4687552, 2.28, 221.76, 0.63, 339.73, -0.950000, 71542
CTUN, 388, 0.00, 2.16, 0.000000, 0.00, 0, 59, 388, 0
ATT, 0.00, 0.47, 0.54, 1.32, 16.04, 173.52, 183.49
CTUN, 389, 0.00, 2.25, 0.000000, 0.00, 0, 50, 389, 0
ATT, 0.00, 0.90, 0.32, 2.16, 16.15, 180.94, 190.69
GPS, 3, 588616000, 1783, 8, 1.88, 37.7509130, -122.4687553, 2.38, 221.91, 0.54, 339.73, -0.850000, 71742
DU32, 7, 272761
CURR, 389, 171226, 0, 0, 4834, 0.000000
CTUN, 389, 0.00, 2.31, 0.000000, 0.00, 0, 43, 389, 0
ATT, 0.00, 0.79, 1.09, 2.55, 15.18, 188.62, 197.68
CTUN, 389, 0.00, 2.39, 0.000000, 0.00, 0, 41, 389, 0
ATT, 3.28, 0.66, 1.75, 2.65, 15.50, 196.56, 204.60
GPS, 3, 588616200, 1783, 8, 1.88, 37.7509135, -122.4687562, 2.46, 222.13, 0.66, 339.73, -0.820000, 71942
CTUN, 394, 0.00, 2.43, 0.000000, 0.00, 0, 31, 394, 0
ATT, 12.24, 2.09, 1.53, 2.67, 3.36, 204.58, 208.90
CTUN, 394, 0.00, 2.30, 0.000000, 0.00, 1, 24, 395, 0
ATT, 10.56, 7.64, 3.51, 2.72, 0.00, 211.34, 208.90
GPS, 3, 588616400, 1783, 8, 1.88, 37.7509125, -122.4687567, 2.51, 222.19, 0.61, 339.73, -0.670000, 72142
CTUN, 394, 0.00, 2.10, 0.000000, 0.00, 5, 23, 399, 0
ATT, 8.25, 11.99, 3.51, 1.55, 0.00, 215.75, 208.90
CTUN, 394, 0.00, 2.33, 0.000000, 0.00, 5, 27, 399, 0
ATT, 5.14, 11.62, 3.51, 0.34, 0.00, 218.67, 208.90
GPS, 3, 588616600, 1783, 8, 1.88, 37.7509121, -122.4687571, 2.53, 222.29, 0.65, 339.73, -0.560000, 72342
CTUN, 394, 0.00, 2.34, 0.000000, 0.00, 3, 29, 398, 0
ATT, 3.37, 8.96, 4.17, 0.94, 0.00, 220.72, 210.72
CTUN, 394, 0.00, 2.42, 0.000000, 0.00, 2, 27, 396, 0
ATT, 4.34, 6.42, 0.00, 2.34, 0.00, 222.04, 212.04
GPS, 3, 588616800, 1783, 8, 1.88, 37.7509118, -122.4687577, 2.57, 222.33, 0.84, 321.56, -0.410000, 72542
CTUN, 394, 0.00, 2.40, 0.000000, 0.00, 1, 24, 395, 0
ATT, 4.61, 5.56, 0.00, 2.49, 0.00, 222.64, 212.64
CTUN, 395, 0.00, 2.36, 0.000000, 0.00, 1, 19, 395, 0
ATT, 2.39, 6.58, 0.00, 0.62, 0.00, 222.46, 212.67
GPS, 3, 588617000, 1783, 7, 2.48, 37.7509117, -122.4687587, 2.59, 222.51, 0.95, 311.68, -0.460000, 72742
DU32, 7, 272761
CURR, 397, 175168, 0, 0, 4834, 0.000000
CTUN, 393, 0.00, 2.31, 0.000000, 0.00, 1, 10, 394, 0
ATT, 2.48, 6.80, 0.00, -1.13, 0.00, 221.65, 212.67
CTUN, 373, 0.00, 2.42, 0.000000, 0.00, 1, 3, 374, 0
ATT, 4.70, 4.77, 0.00, -1.21, 0.00, 220.53, 212.67
GPS, 3, 588617200, 1783, 7, 2.48, 37.7509110, -122.4687589, 2.58, 222.50, 0.79, 306.97, -0.320000, 72942
CTUN, 372, 0.00, 2.45, 0.000000, 0.00, 0, -5, 372, 0
ATT, 6.56, 3.84, 1.64, -0.50, 0.00, 219.21, 212.67
CTUN, 373, 0.00, 2.35, 0.000000, 0.00, 0, -18, 373, 0
ATT, 3.81, 5.05, 8.45, 0.08, 0.00, 217.92, 212.67
GPS, 3, 588617400, 1783, 7, 2.48, 37.7509106, -122.4687599, 2.53, 222.51, 0.87, 301.27, -0.170000, 73141
CTUN, 394, 0.00, 2.48, 0.000000, 0.00, 1, -26, 395, 0
ATT, 4.26, 4.49, 10.20, 3.53, 0.00, 216.57, 212.67
CTUN, 411, 0.00, 2.49, 0.000000, 0.00, 2, -30, 413, 0
ATT, 4.17, 2.59, 10.20, 8.49, 0.00, 215.39, 212.67
GPS, 3, 588617600, 1783, 7, 2.48, 37.7509098, -122.4687605, 2.46, 222.50, 0.74, 297.13, -0.060000, 73341
CTUN, 410, 0.00, 2.34, 0.000000, 0.00, 5, -23, 416, 0
ATT, 4.61, 2.42, 10.75, 10.96, 0.00, 214.74, 212.67
CTUN, 411, 0.00, 2.39, 0.000000, 0.00, 6, -17, 417, 0
ATT, 5.14, 2.38, 10.75, 11.63, 0.00, 214.33, 212.67
GPS, 3, 588617800, 1783, 7, 2.48, 37.7509093, -122.4687609, 2.41, 222.52, 0.80, 300.38, -0.010000, 73541
CTUN, 416, 0.00, 2.28, 0.000000, 0.00, 6, -7, 422, 0
ATT, 4.79, 2.55, 10.75, 12.14, 0.00, 213.76, 212.67
CTUN, 417, 0.00, 2.21, 0.000000, 0.00, 7, 1, 424, 0
ATT, 6.56, 2.97, 10.75, 12.47, 0.00, 213.27, 212.67
GPS, 3, 588618000, 1783, 8, 1.88, 37.7509098, -122.4687609, 2.39, 222.50, 0.59, 331.69, 0.090000, 73741
DU32, 7, 272761
CURR, 400, 179145, 0, 0, 4732, 0.000000
CTUN, 395, 0.00, 2.46, 0.000000, 0.00, 6, 13, 399, 0
ATT, 9.14, 3.31, 10.20, 12.31, 0.00, 212.98, 212.67
CTUN, 394, 0.00, 2.44, 0.000000, 0.00, 6, 21, 399, 0
ATT, 12.33, 4.82, 5.26, 11.26, 0.00, 213.26, 212.67
GPS, 3, 588618200, 1783, 8, 1.88, 37.7509109, -122.4687614, 2.43, 222.72, 0.87, 354.07, -0.140000, 73941
CTUN, 394, 0.00, 2.46, 0.000000, 0.00, 5, 29, 399, 0
ATT, 11.89, 7.66, 2.96, 8.57, 0.00, 214.13, 212.67
CTUN, 394, 0.00, 2.45, 0.000000, 0.00, 5, 35, 399, 0
ATT, 3.81, 9.17, 0.43, 5.70, 0.00, 214.66, 212.67
GPS, 3, 588618400, 1783, 8, 1.88, 37.7509130, -122.4687614, 2.50, 223.10, 0.98, 2.26, -0.420000, 74141
CTUN, 378, 0.00, 2.63, 0.000000, 0.00, 2, 42, 385, 0
ATT, 2.39, 6.40, 0.00, 2.95, 0.00, 214.75, 212.67
CTUN, 376, 0.00, 2.79, 0.000000, 0.00, 0, 49, 376, 0
ATT, 4.61, 2.90, 0.00, 0.72, 0.00, 214.82, 212.67
GPS, 3, 588618600, 1783, 7, 2.48, 37.7509137, -122.4687606, 2.61, 223.37, 1.07, 9.81, -0.570000, 74341
CTUN, 377, 0.00, 2.75, 0.000000, 0.00, 0, 50, 377, 0
ATT, 2.92, 3.64, 0.00, -0.41, 0.00, 215.03, 212.67
CTUN, 378, 0.00, 2.68, 0.000000, 0.00, 0, 48, 377, 0
ATT, 2.57, 5.23, 0.00, -0.78, 0.00, 215.04, 212.67
GPS, 3, 588618800, 1783, 7, 2.48, 37.7509151, -122.4687600, 2.73, 223.72, 1.07, 11.14, -0.750000, 74541
CTUN, 372, 0.00, 2.68, 0.000000, 0.00, 0, 46, 371, 0
ATT, 4.70, 4.25, -7.39, -0.77, 0.00, 215.01, 212.67
CTUN, 344, 0.00, 2.74, 0.000000, 0.00, 0, 41, 344, 0
ATT, 10.02, 3.21, -13.20, -2.73, 0.00, 215.33, 212.67
GPS, 3, 588619000, 1783, 7, 2.48, 37.7509166, -122.4687593, 2.82, 223.89, 0.94, 11.97, -0.670000, 74741
DU32, 7, 272761
CURR, 340, 182975, 0, 0, 4834, 0.000000
CTUN, 345, 0.00, 2.95, 0.000000, 0.00, 2, 30, 347, 0
ATT, 9.58, 5.87, -12.04, -8.36, 0.00, 215.69, 212.67
CTUN, 343, 0.00, 2.70, 0.000000, 0.00, 7, 16, 350, 0
ATT, 6.03, 8.99, -7.39, -12.35, 0.00, 215.46, 212.67
GPS, 3, 588619200, 1783, 7, 2.48, 37.7509171, -122.4687589, 2.87, 224.12, 0.92, 3.48, -0.700000, 74941
CTUN, 339, 0.00, 2.78, 0.000000, 0.00, 6, 5, 345, 0
ATT, 2.92, 7.54, -3.16, -10.89, 0.00, 215.08, 212.67
CTUN, 344, 0.00, 2.76, 0.000000, 0.00, 2, -5, 346, 0
ATT, 0.17, 3.41, -0.84, -6.37, 0.00, 214.94, 212.67
GPS, 3, 588619400, 1783, 8, 1.88, 37.7509168, -122.4687586, 2.86, 224.24, 0.58, 355.13, -0.580000, 75140
CTUN, 345, 0.00, 2.73, 0.000000, 0.00, 0, -16, 344, 0
ATT, 0.00, 0.93, 0.00, -3.06, 0.00, 214.86, 212.67
CTUN, 345, 0.00, 2.63, 0.000000, 0.00, 0, -31, 345, 0
ATT, 0.00, 0.20, 0.00, -1.32, 0.00, 214.73, 212.67
GPS, 3, 588619600, 1783, 8, 1.88, 37.7509178, -122.4687596, 2.79, 224.24, 0.97, 329.74, -0.350000, 75340
CTUN, 345, 0.00, 2.65, 0.000000, 0.00, 0, -45, 345, 0
ATT, 0.00, -0.09, 0.00, -0.15, 0.00, 214.64, 212.67
CTUN, 345, 0.00, 2.52, 0.000000, 0.00, 0, -59, 344, 0
ATT, 0.00, -0.48, 0.00, 0.72, 0.00, 214.53, 212.67
GPS, 3, 588619800, 1783, 8, 1.88, 37.7509172, -122.4687602, 2.66, 224.20, 0.65, 322.24, -0.190000, 75540
CTUN, 343, 0.00, 2.54, 0.000000, 0.00, 0, -73, 343, 0
ATT, 0.00, -0.65, 0.00, 0.90, 0.00, 214.53, 212.67
CTUN, 344, 0.00, 2.35, 0.000000, 0.00, 0, -87, 343, 0
ATT, 0.00, -0.61, 0.00, 0.78, 0.00, 214.58, 212.67
GPS, 3, 588620000, 1783, 8, 1.88, 37.7509171, -122.4687608, 2.44, 224.15, 0.55, 307.69, -0.010000, 75759
DU32, 7, 272761
CURR, 344, 186421, 0, 0, 4772, 0.000000
PM, 0, 0, 0, 1000, 10257, 0, 0, 0, 0
CTUN, 344, 0.00, 2.27, 0.000000, 0.00, 0, -99, 344, 0
ATT, 0.00, -0.92, 0.00, 1.07, 0.00, 214.54, 212.67
CTUN, 344, 0.00, 2.13, 0.000000, 0.00, 0, -110, 344, 0
ATT, 0.00, -1.01, 0.00, 1.10, 0.00, 214.53, 212.67
GPS, 3, 588620200, 1783, 8, 1.88, 37.7509164, -122.4687606, 2.19, 223.90, 0.45, 292.17, 0.440000, 75958
CTUN, 350, 0.00, 1.93, 0.000000, 0.00, 0, -120, 351, 0
ATT, 0.00, -0.79, 0.00, 0.86, 0.00, 214.56, 212.67
CTUN, 350, 0.00, 1.77, 0.000000, 0.00, 0, -130, 350, 0
ATT, 0.00, -0.71, 0.00, 0.85, 0.00, 214.41, 212.67
GPS, 3, 588620400, 1783, 8, 1.88, 37.7509162, -122.4687606, 1.89, 223.63, 0.34, 292.17, 0.760000, 76159
CTUN, 371, 0.00, 1.64, 0.000000, 0.00, 0, -139, 371, 0
ATT, 0.00, -0.85, 0.00, 1.17, 0.00, 214.18, 212.67
CTUN, 373, 0.00, 1.65, 0.000000, 0.00, 0, -143, 373, 0
ATT, 0.00, -0.85, 0.00, 1.70, 0.00, 214.10, 212.67
GPS, 3, 588620600, 1783, 8, 1.88, 37.7509159, -122.4687607, 1.60, 223.43, 0.20, 292.17, 0.970000, 76340
CTUN, 388, 0.00, 1.52, 0.000000, 0.00, 0, -144, 388, 0
ATT, 0.00, -0.65, 0.00, 2.21, 0.00, 214.15, 212.67
CTUN, 399, 0.00, 1.33, 0.000000, 0.00, 0, -143, 400, 0
ATT, 2.04, -0.27, 0.00, 2.45, 0.00, 214.11, 212.67
GPS, 3, 588620800, 1783, 8, 1.88, 37.7509153, -122.4687604, 1.25, 223.24, 0.07, 292.17, 1.150000, 76558
CTUN, 400, 0.00, 1.10, 0.000000, 0.00, 0, -137, 399, 0
ATT, 6.47, 0.83, 0.00, 2.66, 0.00, 213.97, 212.67
CTUN, 428, 0.00, 0.91, 0.000000, 0.00, 0, -128, 416, 0
ATT, 8.16, 3.32, 0.00, 2.84, 0.00, 213.64, 212.67
GPS, 3, 588621000, 1783, 8, 1.88, 37.7509155, -122.4687599, 0.96, 222.97, 0.08, 292.17, 1.290000, 76758
DU32, 7, 272761
CURR, 466, 190138, 0, 0, 4813, 0.000000
CTUN, 471, 0.00, 0.93, 0.000000, 0.00, 1, -108, 472, 0
ATT, 2.57, 5.87, 0.00, 2.43, 0.00, 213.44, 212.67
CTUN, 476, 0.00, 0.92, 0.000000, 0.00, 1, -78, 478, 0
ATT, 0.00, 4.96, 0.00, 1.95, 0.00, 213.31, 212.67
GPS, 3, 588621200, 1783, 8, 1.88, 37.7509147, -122.4687594, 0.79, 222.85, 0.24, 292.17, 1.150000, 76939
CTUN, 477, 0.00, 0.60, 0.000000, 0.00, 0, -43, 477, 0
ATT, 0.00, 2.17, 0.00, 1.84, 0.00, 213.44, 212.67
CTUN, 477, 0.00, 0.48, 0.000000, 0.00, 0, -9, 477, 0
ATT, -0.98, 1.16, 0.00, 1.63, 0.00, 213.66, 212.67
GPS, 3, 588621400, 1783, 8, 1.88, 37.7509142, -122.4687590, 0.72, 222.84, 0.34, 342.84, 0.930000, 77158
CTUN, 443, 0.00, 0.56, 0.000000, 0.00, 0, 21, 455, 0
ATT, 0.00, 0.81, -8.66, 0.99, 0.00, 213.83, 212.67
CTUN, 400, 0.00, 0.44, 0.000000, 0.00, 0, 45, 405, 0
ATT, 0.00, 0.75, -8.55, -2.33, 0.00, 214.09, 212.67
GPS, 3, 588621600, 1783, 8, 1.88, 37.7509144, -122.4687589, 0.76, 223.01, 0.49, 10.62, 0.560000, 77339
CTUN, 400, 0.00, 0.64, 0.000000, 0.00, 1, 50, 400, 0
ATT, 0.00, 0.83, -8.55, -6.77, 0.00, 214.30, 212.67
CTUN, 399, 0.00, 0.73, 0.000000, 0.00, 3, 53, 402, 0
ATT, 0.00, 0.96, -3.80, -8.65, 0.00, 214.10, 212.67
GPS, 3, 588621800, 1783, 8, 1.88, 37.7509140, -122.4687583, 0.87, 223.26, 0.43, 22.92, 0.190000, 77558
CTUN, 388, 0.00, 0.62, 0.000000, 0.00, 2, 53, 390, 0
ATT, 0.00, 0.79, 0.00, -7.76, 0.00, 214.08, 212.67
CTUN, 339, 0.00, 0.73, 0.000000, 0.00, 0, 51, 339, 0
ATT, 4.79, 0.59, 0.00, -4.68, 0.00, 214.48, 212.67
GPS, 3, 588622000, 1783, 8, 1.88, 37.7509125, -122.4687583, 0.95, 223.55, 0.12, 22.92, 0.010000, 77758
DU32, 7, 272761
CURR, 345, 194444, 0, 0, 4772, 0.000000
CTUN, 343, 0.00, 0.92, 0.000000, 0.00, 0, 37, 343, 0
ATT, 4.26, 2.59, 0.00, -3.00, 0.00, 215.23, 212.67
CTUN, 394, 0.00, 0.88, 0.000000, 0.00, 1, 20, 384, 0
ATT, 2.04, 4.75, 0.00, -3.47, 0.00, 215.86, 212.67
GPS, 3, 588622200, 1783, 8, 1.88, 37.7509112, -122.4687586, 1.00, 223.83, 0.09, 22.92, -0.050000, 77958
CTUN, 395, 0.00, 0.90, 0.000000, 0.00, 1, 11, 396, 0
ATT, 1.15, 4.33, 0.00, -3.38, 0.00, 215.80, 212.67
CTUN, 395, 0.00, 0.86, 0.000000, 0.00, 0, 11, 395, 0
ATT, 0.26, 2.90, 0.00, -2.02, 0.00, 215.71, 212.67
GPS, 3, 588622400, 1783, 8, 1.88, 37.7509097, -122.4687585, 1.01, 223.84, 0.24, 22.92, 0.020000, 78157
CTUN, 395, 0.00, 0.96, 0.000000, 0.00, 0, 9, 394, 0
ATT, 0.00, 2.48, 0.00, -1.35, 0.00, 215.74, 212.67
CTUN, 372, 0.00, 0.94, 0.000000, 0.00, 0, 10, 373, 0
ATT, 0.00, 2.53, 0.00, -1.54, 0.00, 215.63, 212.67
GPS, 3, 588622600, 1783, 8, 1.88, 37.7509089, -122.4687587, 1.02, 223.80, 0.25, 22.92, 0.120000, 78358
CTUN, 371, 0.00, 0.89, 0.000000, 0.00, 0, 7, 372, 0
ATT, 0.00, 2.14, 0.00, -1.85, 0.00, 215.26, 212.67
CTUN, 371, 0.00, 0.81, 0.000000, 0.00, 0, 2, 371, 0
ATT, 0.00, 1.59, 0.00, -1.79, 0.00, 214.85, 212.67
GPS, 3, 588622800, 1783, 8, 1.88, 37.7509084, -122.4687594, 1.01, 223.86, 0.26, 22.92, 0.150000, 78557
CTUN, 372, 0.00, 0.91, 0.000000, 0.00, 0, -5, 372, 0
ATT, 0.00, 1.32, 0.00, -1.29, 0.00, 214.63, 212.67
CTUN, 378, 0.00, 1.00, 0.000000, 0.00, 0, -11, 378, 0
ATT, 0.00, 1.03, 0.00, -0.79, 0.00, 214.44, 212.67
GPS, 3, 588623000, 1783, 8, 1.88, 37.7509079, -122.4687601, 0.98, 223.87, 0.32, 22.92, 0.190000, 78757
DU32, 7, 272761
CURR, 394, 198204, 0, 0, 4772, 0.000000
CTUN, 394, 0.00, 0.86, 0.000000, 0.00, 0, -15, 394, 0
ATT, 0.00, 0.58, 0.00, -0.38, 0.00, 214.17, 212.67
CTUN, 394, 0.00, 0.79, 0.000000, 0.00, 0, -15, 389, 0
ATT, 0.00, 0.32, 0.00, -0.07, 0.00, 213.68, 212.67
GPS, 3, 588623200, 1783, 8, 1.88, 37.7509071, -122.4687609, 0.93, 223.94, 0.38, 319.49, 0.210000, 78957
CTUN, 394, 0.00, 0.88, 0.000000, 0.00, 0, -12, 394, 0
ATT, 0.00, 0.14, 0.00, 0.24, 0.00, 213.13, 212.67
CTUN, 394, 0.00, 0.64, 0.000000, 0.00, 0, -9, 394, 0
ATT, 0.00, 0.10, 0.00, 0.36, 0.00, 212.79, 212.67
GPS, 3, 588623400, 1783, 8, 1.88, 37.7509067, -122.4687608, 0.90, 223.83, 0.26, 319.49, 0.360000, 79138
CTUN, 395, 0.00, 0.72, 0.000000, 0.00, 0, -4, 394, 0
ATT, 0.00, 0.00, 0.00, 0.55, 0.00, 212.76, 212.67
CTUN, 394, 0.00, 0.65, 0.000000, 0.00, 0, 0, 394, 0
ATT, 0.00, 0.07, 0.00, 0.79, 0.00, 212.74, 212.67
GPS, 3, 588623600, 1783, 8, 1.88, 37.7509064, -122.4687610, 0.87, 223.86, 0.18, 319.49, 0.240000, 79338
CTUN, 394, 0.00, 0.54, 0.000000, 0.00, 0, 6, 394, 0
ATT, 0.00, 0.06, 0.00, 0.68, 0.00, 212.52, 212.67
CTUN, 394, 0.00, 0.66, 0.000000, 0.00, 0, 15, 394, 0
ATT, 0.00, 0.14, 0.00, 0.55, 0.00, 212.54, 212.67
GPS, 3, 588623800, 1783, 8, 1.88, 37.7509057, -122.4687607, 0.86, 223.85, 0.05, 319.49, 0.210000, 79538
CTUN, 394, 0.00, 0.72, 0.000000, 0.00, 0, 21, 394, 0
ATT, 0.00, 0.53, 0.00, 0.58, 0.00, 212.46, 212.67
CTUN, 338, 0.00, 0.63, 0.000000, 0.00, 0, 25, 338, 0
ATT, 0.00, 0.05, 0.00, 0.72, 0.00, 212.33, 212.67
GPS, 3, 588624000, 1783, 8, 1.88, 37.7509050, -122.4687603, 0.89, 223.85, 0.05, 319.49, 0.170000, 79757
DU32, 7, 272761
CURR, 344, 202077, 0, 0, 4712, 0.000000
CTUN, 344, 0.00, 0.68, 0.000000, 0.00, 0, 19, 344, 0
ATT, 0.00, -0.54, 0.00, 1.00, 0.00, 212.91, 212.67
CTUN, 345, 0.00, 0.88, 0.000000, 0.00, 0, 9, 345, 0
ATT, 0.00, -0.23, 0.00, 1.45, 0.00, 213.36, 212.67
GPS, 3, 588624200, 1783, 8, 1.88, 37.7509047, -122.4687598, 0.90, 223.88, 0.11, 319.49, 0.160000, 79956
CTUN, 345, 0.00, 0.76, 0.000000, 0.00, 0, -5, 345, 0
ATT, 0.00, 0.48, 0.00, 1.30, 0.00, 213.89, 212.67
CTUN, 373, 0.00, 0.73, 0.000000, 0.00, 0, -19, 372, 0
ATT, 0.00, 0.79, 0.00, 0.97, 0.00, 214.33, 212.67
GPS, 3, 588624400, 1783, 8, 1.88, 37.7509047, -122.4687591, 0.85, 223.90, 0.20, 319.49, 0.200000, 80156
CTUN, 395, 0.00, 0.85, 0.000000, 0.00, 0, -26, 394, 0
ATT, 0.00, 0.57, 0.00, 1.16, 0.00, 214.58, 212.67
CTUN, 394, 0.00, 0.59, 0.000000, 0.00, 0, -23, 394, 0
ATT, 0.00, 0.47, 0.00, 1.09, 0.00, 214.68, 212.67
GPS, 3, 588624600, 1783, 8, 1.88, 37.7509045, -122.4687584, 0.79, 223.91, 0.19, 319.49, 0.210000, 80356
CTUN, 393, 0.00, 0.52, 0.000000, 0.00, 0, -19, 393, 0
ATT, 0.00, 0.57, 0.00, 0.58, 0.00, 214.64, 212.67
CTUN, 393, 0.00, 0.60, 0.000000, 0.00, 0, -11, 393, 0
ATT, 0.00, 0.24, 0.00, 1.03, 0.00, 214.40, 212.67
