13

ArduCopter V3.1.2 (ddd4d881)
Free RAM: 1151
APM 2
FMT, 128, 89, FMT, BBnNZ, Type,Length,Name,Format
FMT, 129, 23, PARM, Nf, Name,Value
FMT, 130, 45, GPS, BIHBcLLeeEefI, Status,TimeMS,Week,NSats,HDop,Lat,Lng,RelAlt,Alt,Spd,GCrs,VZ,T
FMT, 131, 31, IMU, Iffffff, TimeMS,GyrX,GyrY,GyrZ,AccX,AccY,AccZ
FMT, 132, 67, MSG, Z, Message
FMT, 25, 25, ATUN, BBfffff, Axis,TuneStep,RateMin,RateMax,RPGain,RDGain,SPGain
FMT, 26, 9, ATDE, cf, Angle,Rate
FMT, 9, 19, CURR, hIhhhf, ThrOut,ThrInt,Volt,Curr,Vcc,CurrTot
FMT, 11, 11, MOT, hhhh, Mot1,Mot2,Mot3,Mot4
FMT, 12, 28, OF, hhBccffee, Dx,Dy,SQual,X,Y,Lat,Lng,Roll,Pitch
FMT, 5, 49, NTUN, Ecffffffffee, WPDst,WPBrg,PErX,PErY,DVelX,DVelY,VelX,VelY,DAcX,DAcY,DRol,DPit
FMT, 4, 25, CTUN, hcefchhhh, ThrIn,SonAlt,BarAlt,WPAlt,DesSonAlt,AngBst,CRate,ThrOut,DCRate
FMT, 15, 21, MAG, hhhhhhhhh, MagX,MagY,MagZ,OfsX,OfsY,OfsZ,MOfsX,MOfsY,MOfsZ
FMT, 6, 19, PM, BBHHIhBHB, RenCnt,RenBlw,NLon,NLoop,MaxT,PMT,I2CErr,INSErr,INAVErr
FMT, 8, 20, CMD, BBBBBeLL, CTot,CNum,CId,COpt,Prm1,Alt,Lat,Lng
FMT, 1, 17, ATT, cccccCC, RollIn,Roll,PitchIn,Pitch,YawIn,Yaw,NavYaw
FMT, 17, 37, INAV, cccfffiiff, BAlt,IAlt,IClb,ACorrX,ACorrY,ACorrZ,GLat,GLng,ILat,ILng
FMT, 3, 6, MODE, Mh, Mode,ThrCrs
FMT, 10, 3, STRT, ,
FMT, 13, 4, EV, B, Id
FMT, 20, 6, D16, Bh, Id,Value
FMT, 21, 6, DU16, BH, Id,Value
FMT, 22, 8, D32, Bi, Id,Value
FMT, 23, 8, DU32, BI, Id,Value
FMT, 24, 8, DFLT, Bf, Id,Value
FMT, 14, 28, PID, Biiiiif, Id,Error,P,I,D,Out,Gain
FMT, 18, 27, CAM, IHLLeccC, GPSTime,GPSWeek,Lat,Lng,Alt,Roll,Pitch,Yaw
FMT, 19, 5, ERR, BB, Subsys,ECode
STRT,
CMD, 237, 155, 2, 0, 11, 7885271., 2.6583928, 0.0170989
UNKN, 2
STRT,
CMD, 82, 156, 2, 0, 21, 7885253., 2.6583928, 0.0171090
UNKN, 2
GPS, 3, 354627600, 1782, 10, 1.51, 37.7510203, -122.4687293, 0.00, 226.35, 0.06, 150.50, -0.080000, 171129
STRT,
CMD, 181, 156, 2, 0, 22, 7885256., 2.6583928, 0.0171189
UNKN, 2
NTUN, 1712.51, 0.00, 0.000000, 0.000000, -0.000000, 0.000000, 0.000000, -0.000000, -1.547708e+26, 0.000000, -1.56e+07, -1.66e+07
ATT, -253.18, 0.02, 0.00, 0.13, -0.02, 0.00, 594.02
UNKN, 2
GPS, 3, 354627800, 1782, 10, 1.51, 37.7510204, -122.4687295, 0.00, 226.38, 0.19, 150.50, -0.240000, 171329
STRT,
CMD, 125, 157, 2, 0, 5, 7717522., 2.6583928, 0.0171389
UNKN, 2
STRT,
CMD, 226, 157, 2, 0, 1, 8053048., 2.6583928, 0.0171490
UNKN, 2
GPS, 3, 354628000, 1782, 10, 1.51, 37.7510201, -122.4687299, 0.00, 226.40, 0.40, 150.50, -0.350000, 171529
STRT,
CMD, 69, 158, 2, 0, 247, 8220821., 2.6583928, 0.0171589
UNKN, 2
STRT,
CMD, 170, 158, 2, 0, 226, 7885297., 2.6583928, 0.0171690
UNKN, 2
GPS, 3, 354628200, 1782, 10, 1.51, 37.7510199, -122.4687303, 0.00, 226.36, 0.14, 150.50, 0.270000, 171729
STRT,
CMD, 13, 159, 2, 0, 224, 7885302., 2.6583928, 0.0171789
UNKN, 2
STRT,
CMD, 114, 159, 2, 0, 249, 7885292., 2.6583928, 0.0171890
UNKN, 2
GPS, 3, 354628400, 1782, 10, 1.51, 37.7510197, -122.4687304, 0.00, 226.29, 0.14, 150.50, 0.090000, 171929
STRT,
CMD, 213, 159, 2, 0, 7, 7717519., 2.6583928, 0.0171989
UNKN, 2
STRT,
CMD, 57, 160, 2, 0, 7, 7885317., 2.6583928, 0.0172090
UNKN, 2
GPS, 3, 354628600, 1782, 10, 1.51, 37.7510196, -122.4687304, 0.00, 226.35, 0.04, 150.50, -0.660000, 172129
STRT,
CMD, 157, 160, 2, 0, 8, 7717558., 2.6583928, 0.0172189
UNKN, 2
NTUN, 1722.51, 0.00, 0.000000, 0.000000, -0.000000, 0.000000, 0.000000, -0.000000, -1.547708e+26, 0.000000, -1.56e+07, -1.59e+07
ATT, -243.18, 0.02, 0.00, 0.12, 0.09, 0.00, 0.00
UNKN, 2
GPS, 3, 354628800, 1782, 10, 1.51, 37.7510196, -122.4687305, 0.00, 226.38, 0.32, 150.50, -0.670000, 172328
STRT,
CMD, 101, 161, 2, 0, 9, 8220838., 2.6583928, 0.0172389
UNKN, 2
STRT,
CMD, 201, 161, 2, 0, 255, 8388585., 2.6583928, 0.0172489
UNKN, 2
GPS, 3, 354629000, 1782, 10, 1.51, 37.7510197, -122.4687304, 0.00, 226.38, 0.12, 150.50, -0.520000, 172529
STRT,
CMD, 45, 162, 2, 0, 0, 8388580., 2.6583928, 0.0172589
UNKN, 2
STRT,
CMD, 145, 162, 2, 0, 19, 8053066., 2.6583928, 0.0172689
UNKN, 2
GPS, 3, 354629200, 1782, 10, 1.51, 37.7510199, -122.4687302, 0.00, 226.42, 0.10, 150.50, -0.320000, 172728
STRT,
CMD, 245, 162, 2, 0, 30, 8220862., 2.6583928, 0.0172789
UNKN, 2
STRT,
CMD, 89, 163, 2, 0, 29, 8556408., 2.6583928, 0.0172889
UNKN, 2
GPS, 3, 354629400, 1782, 10, 1.51, 37.7510199, -122.4687299, 0.00, 226.43, 0.16, 150.50, -0.370000, 172928
STRT,
CMD, 189, 163, 2, 0, 23, 8891960., 2.6583928, 0.0172989
UNKN, 2
STRT,
CMD, 33, 164, 2, 0, 9, 9227512., 2.6583928, 0.0173089
UNKN, 2
GPS, 3, 354629600, 1782, 10, 1.51, 37.7510200, -122.4687297, 0.00, 226.43, 0.21, 150.50, -0.200000, 173128
STRT,
CMD, 132, 164, 2, 0, 8, 9563051., 2.6583928, 0.0173189
UNKN, 2
NTUN, 1732.49, 0.00, 0.000000, 0.000000, -0.000000, 0.000000, 0.000000, -0.000000, -1.547708e+26, 0.000000, -1.56e+07, -1.53e+07
ATT, -233.19, 0.02, 0.00, 0.28, 0.05, 0.00, 192.09
UNKN, 2
GPS, 3, 354629800, 1782, 10, 1.51, 37.7510203, -122.4687295, 0.00, 226.39, 0.10, 150.50, -0.110000, 173328
STRT,
CMD, 76, 165, 2, 0, 34, 1.02e+07, 2.6583928, 0.0173388
UNKN, 2
STRT,
CMD, 177, 165, 2, 0, 19, 1.04e+07, 2.6583928, 0.0173489
UNKN, 2
GPS, 3, 354630000, 1782, 10, 1.51, 37.7510202, -122.4687297, 0.00, 226.40, 0.23, 150.50, -0.250000, 173528
STRT,
CMD, 20, 166, 2, 0, 6, 1.06e+07, 2.6583928, 0.0173588
UNKN, 2
STRT,
CMD, 121, 166, 2, 0, 253, 1.07e+07, 2.6583928, 0.0173689
UNKN, 2
GPS, 3, 354630200, 1782, 10, 1.51, 37.7510201, -122.4687298, 0.00, 226.36, 0.11, 150.50, -0.020000, 173728
STRT,
CMD, 220, 166, 2, 0, 250, 1.07e+07, 2.6583928, 0.0173788
UNKN, 2
STRT,
CMD, 65, 167, 2, 0, 2, 1.07e+07, 2.6583928, 0.0173889
UNKN, 2
GPS, 3, 354630400, 1782, 10, 1.51, 37.7510202, -122.4687299, 0.00, 226.34, 0.17, 150.50, 0.020000, 173928
STRT,
CMD, 164, 167, 2, 0, 10, 1.11e+07, 2.6583928, 0.0173988
UNKN, 2
STRT,
CMD, 8, 168, 2, 0, 16, 1.11e+07, 2.6583928, 0.0174089
UNKN, 2
GPS, 3, 354630600, 1782, 10, 1.51, 37.7510203, -122.4687300, 0.00, 226.35, 0.09, 150.50, -0.280000, 174128
STRT,
CMD, 108, 168, 2, 0, 18, 1.11e+07, 2.6583928, 0.0174188
UNKN, 2
NTUN, 1742.48, 0.00, 0.000000, 0.000000, -0.000000, 0.000000, 0.000000, -0.000000, -1.547708e+26, 0.000000, -1.56e+07, -1.46e+07
ATT, -223.19, 0.02, 0.00, 0.13, 0.00, 0.00, 235.67
UNKN, 2
GPS, 3, 354630800, 1782, 10, 1.51, 37.7510204, -122.4687300, 0.00, 226.41, 0.05, 150.50, -0.320000, 174328
STRT,
CMD, 52, 169, 2, 0, 11, 1.06e+07, 2.6583928, 0.0174388
UNKN, 2
STRT,
CMD, 152, 169, 2, 0, 16, 1.06e+07, 2.6583928, 0.0174489
UNKN, 2
GPS, 3, 354631000, 1782, 10, 1.51, 37.7510210, -122.4687301, 0.00, 226.50, 0.51, 150.50, -0.260000, 174528
STRT,
CMD, 252, 169, 2, 0, 28, 1.07e+07, 2.6583928, 0.0174588
UNKN, 2
STRT,
CMD, 96, 170, 2, 0, 50, 1.09e+07, 2.6583928, 0.0174688
UNKN, 2
GPS, 3, 354631200, 1782, 10, 1.51, 37.7510214, -122.4687298, 0.00, 226.51, 0.18, 150.50, -0.130000, 174728
STRT,
CMD, 196, 170, 2, 0, 55, 1.09e+07, 2.6583928, 0.0174788
UNKN, 2
STRT,
CMD, 40, 171, 2, 0, 35, 1.11e+07, 2.6583928, 0.0174888
UNKN, 2
GPS, 3, 354631400, 1782, 10, 1.51, 37.7510210, -122.4687293, 0.00, 226.53, 0.43, 150.50, -0.070000, 174927
STRT,
CMD, 140, 171, 2, 0, 17, 1.16e+07, 2.6583928, 0.0174988
UNKN, 2
STRT,
CMD, 240, 171, 2, 0, 1, 1.21e+07, 2.6583928, 0.0175088
UNKN, 2
GPS, 3, 354631600, 1782, 10, 1.51, 37.7510208, -122.4687292, 0.00, 226.55, 0.18, 150.50, -0.130000, 175127
STRT,
CMD, 83, 172, 2, 0, 251, 1.28e+07, 2.6583928, 0.0175188
UNKN, 2
NTUN, 1752.49, 0.00, 0.000000, 0.000000, -0.000000, 0.000000, 0.000000, -0.126907, 0.000000, 0.000000, 0.00, -1.78e+07
CMD, 184, 172, 2, 0, 255, 1.34e+07, 2.6583928, 0.0175288
UNKN, 2
GPS, 3, 354631800, 1782, 10, 1.51, 37.7510209, -122.4687293, 0.00, 226.55, 0.10, 150.50, 0.030000, 175327
STRT,
CMD, 27, 173, 2, 0, 4, 1.38e+07, 2.6583928, 0.0175388
UNKN, 2
STRT,
CMD, 128, 173, 2, 0, 15, 1.36e+07, 2.6583928, 0.0175488
UNKN, 2
GPS, 3, 354632000, 1782, 10, 1.51, 37.7510207, -122.4687292, 0.00, 226.51, 0.26, 150.50, 0.170000, 175527
STRT,
CMD, 227, 173, 2, 0, 14, 1.36e+07, 2.6583928, 0.0175587
UNKN, 2
STRT,
CMD, 72, 174, 2, 0, 252, 1.38e+07, 2.6583928, 0.0175688
UNKN, 2
GPS, 3, 354632200, 1782, 10, 1.51, 37.7510203, -122.4687295, 0.00, 226.51, 0.29, 150.50, 0.250000, 175727
STRT,
CMD, 171, 174, 2, 0, 240, 1.41e+07, 2.6583928, 0.0175787
UNKN, 2
STRT,
CMD, 15, 175, 2, 0, 234, 1.44e+07, 2.6583928, 0.0175888
UNKN, 2
GPS, 3, 354632400, 1782, 10, 1.51, 37.7510203, -122.4687296, 0.00, 226.52, 0.18, 150.50, -0.080000, 175927
STRT,
CMD, 115, 175, 2, 0, 240, 1.44e+07, 2.6583928, 0.0175987
UNKN, 2
STRT,
CMD, 216, 175, 2, 0, 6, 1.44e+07, 2.6583928, 0.0176088
UNKN, 2
GPS, 3, 354632600, 1782, 10, 1.51, 37.7510203, -122.4687296, 0.00, 226.51, 0.11, 150.50, 0.030000, 176127
STRT,
CMD, 59, 176, 2, 0, 14, 1.46e+07, 2.6583928, 0.0176187
UNKN, 2
NTUN, 1762.48, 0.00, 0.000000, 0.000000, -0.000000, 0.000000, 0.000000, -0.000000, -1.547708e+26, 0.000000, -1.56e+07, -1.33e+07
ATT, -203.21, 0.02, 0.00, -0.01, 0.06, 0.00, 340.59
UNKN, 2
GPS, 3, 354632800, 1782, 10, 1.51, 37.7510203, -122.4687298, 0.00, 226.58, 0.03, 150.50, -0.240000, 176327
STRT,
CMD, 3, 177, 2, 0, 247, 1.43e+07, 2.6583928, 0.0176387
UNKN, 2
STRT,
CMD, 103, 177, 2, 0, 250, 1.43e+07, 2.6583928, 0.0176487
UNKN, 2
GPS, 3, 354633000, 1782, 10, 1.51, 37.7510202, -122.4687300, 0.00, 226.59, 0.31, 150.50, -0.310000, 176527
STRT,
CMD, 203, 177, 2, 0, 250, 1.44e+07, 2.6583928, 0.0176587
UNKN, 2
STRT,
CMD, 47, 178, 2, 0, 244, 1.46e+07, 2.6583928, 0.0176687
UNKN, 2
GPS, 3, 354633200, 1782, 10, 1.51, 37.7510204, -122.4687304, 0.00, 226.65, 0.20, 150.50, -0.380000, 176727
STRT,
CMD, 147, 178, 2, 0, 246, 1.43e+07, 2.6583928, 0.0176787
UNKN, 2
STRT,
CMD, 247, 178, 2, 0, 4, 1.36e+07, 2.6583928, 0.0176887
UNKN, 2
GPS, 3, 354633400, 1782, 10, 1.51, 37.7510205, -122.4687305, 0.00, 226.70, 0.25, 150.50, -0.600000, 176926
STRT,
CMD, 91, 179, 2, 0, 7, 1.34e+07, 2.6583928, 0.0176987
UNKN, 2
STRT,
CMD, 191, 179, 2, 0, 248, 1.34e+07, 2.6583928, 0.0177087
UNKN, 2
GPS, 3, 354633600, 1782, 10, 1.51, 37.7510204, -122.4687310, 0.00, 226.79, 0.27, 150.50, -0.410000, 177126
STRT,
CMD, 35, 180, 2, 0, 237, 1.33e+07, 2.6583928, 0.0177187
UNKN, 2
NTUN, 1772.47, 0.00, 0.000000, 0.000000, -0.000000, 0.000000, 0.000000, -0.000000, -1.547708e+26, 0.000000, -1.56e+07, -1.27e+07
ATT, -193.21, 0.02, 0.00, -0.24, -0.01, 0.00, 340.59
UNKN, 2
GPS, 3, 354633800, 1782, 10, 1.51, 37.7510202, -122.4687313, 0.00, 226.81, 0.21, 150.50, -0.460000, 177326
STRT,
CMD, 234, 180, 2, 0, 230, 1.28e+07, 2.6583928, 0.0177387
UNKN, 2
STRT,
CMD, 79, 181, 2, 0, 232, 1.28e+07, 2.6583928, 0.0177487
UNKN, 2
GPS, 3, 354634000, 1782, 10, 1.51, 37.7510201, -122.4687314, 0.00, 226.84, 0.14, 150.50, -0.410000, 177526
STRT,
CMD, 178, 181, 2, 0, 239, 1.26e+07, 2.6583928, 0.0177586
UNKN, 2
STRT,
CMD, 23, 182, 2, 0, 252, 1.26e+07, 2.6583928, 0.0177687
UNKN, 2
GPS, 3, 354634200, 1782, 10, 1.51, 37.7510199, -122.4687314, 0.00, 226.84, 0.30, 150.50, -0.120000, 177726
STRT,
CMD, 122, 182, 2, 0, 253, 1.26e+07, 2.6583928, 0.0177786
UNKN, 2
STRT,
CMD, 223, 182, 2, 0, 237, 1.22e+07, 2.6583928, 0.0177887
UNKN, 2
GPS, 3, 354634400, 1782, 10, 1.51, 37.7510196, -122.4687312, 0.00, 226.86, 0.14, 150.50, -0.250000, 177926
STRT,
CMD, 66, 183, 2, 0, 232, 1.26e+07, 2.6583928, 0.0177986
UNKN, 2
STRT,
CMD, 167, 183, 2, 0, 245, 1.31e+07, 2.6583928, 0.0178087
UNKN, 2
GPS, 3, 354634600, 1782, 10, 1.51, 37.7510195, -122.4687308, 0.00, 226.91, 0.25, 150.50, -0.180000, 178126
STRT,
CMD, 10, 184, 2, 0, 0, 1.38e+07, 2.6583928, 0.0178186
UNKN, 2
NTUN, 1782.48, 0.00, 0.000000, 0.000000, -0.000000, 0.000000, 0.000000, -0.000000, -1.547708e+26, 0.000000, -1.56e+07, -1.20e+07
ATT, -183.21, 0.02, 0.00, 0.10, 0.42, 0.00, 87.16
UNKN, 2
GPS, 3, 354634800, 1782, 10, 1.51, 37.7510196, -122.4687305, 0.00, 226.98, 0.09, 150.50, -0.340000, 178326
STRT,
CMD, 210, 184, 2, 0, 14, 1.51e+07, 2.6583928, 0.0178386
UNKN, 2
STRT,
CMD, 54, 185, 2, 0, 10, 1.53e+07, 2.6583928, 0.0178486
UNKN, 2
GPS, 3, 354635000, 1782, 10, 1.51, 37.7510196, -122.4687304, 0.00, 227.07, 0.08, 150.50, -0.420000, 178526
STRT,
CMD, 154, 185, 2, 0, 7, 1.56e+07, 2.6583928, 0.0178586
UNKN, 2
STRT,
CMD, 254, 185, 2, 0, 5, 1.61e+07, 2.6583928, 0.0178686
UNKN, 2
GPS, 3, 354635200, 1782, 10, 1.51, 37.7510195, -122.4687304, 0.00, 227.13, 0.10, 150.50, -0.099999, 178726
STRT,
CMD, 98, 186, 2, 0, 0, 1.64e+07, 2.6583928, 0.0178786
UNKN, 2
STRT,
CMD, 198, 186, 2, 0, 248, 1.69e+07, 2.6583928, 0.0178886
UNKN, 2
GPS, 3, 354635400, 1782, 10, 1.51, 37.7510192, -122.4687303, 0.00, 227.08, 0.11, 150.50, 0.260000, 178926
STRT,
CMD, 42, 187, 2, 0, 241, 1.73e+07, 2.6583928, 0.0178986
UNKN, 2
STRT,
CMD, 142, 187, 2, 0, 240, 1.76e+07, 2.6583928, 0.0179086
UNKN, 2
GPS, 3, 354635600, 1782, 10, 1.51, 37.7510190, -122.4687306, 0.00, 227.07, 0.16, 150.50, 0.110000, 179126
STRT,
CMD, 242, 187, 2, 0, 237, 1.80e+07, 2.6583928, 0.0179186
UNKN, 2
NTUN, 1792.46, 0.00, 0.000000, 0.000000, -0.000000, 0.000000, 0.000000, -0.000000, -1.547708e+26, 0.000000, -1.56e+07, -1.14e+07
ATT, -173.22, 0.02, 0.00, -0.22, 0.24, 0.00, 340.59
UNKN, 2
GPS, 3, 354635800, 1782, 10, 1.51, 37.7510188, -122.4687307, 0.00, 227.08, 0.10, 150.50, -0.040000, 179326
STRT,
CMD, 186, 188, 2, 0, 235, 1.83e+07, 2.6583928, 0.0179386
UNKN, 2
STRT,
CMD, 30, 189, 2, 0, 242, 1.81e+07, 2.6583928, 0.0179486
UNKN, 2
GPS, 3, 354636000, 1782, 10, 1.51, 37.7510186, -122.4687307, 0.00, 227.11, 0.11, 150.50, -0.020000, 179525
STRT,
CMD, 129, 189, 2, 0, 245, 1.83e+07, 2.6583928, 0.0179586
UNKN, 2
STRT,
CMD, 230, 189, 2, 0, 241, 1.86e+07, 2.6583928, 0.0179686
UNKN, 2
GPS, 3, 354636200, 1782, 10, 1.51, 37.7510183, -122.4687306, 0.00, 227.09, 0.32, 150.50, 0.140000, 179725
STRT,
CMD, 73, 190, 2, 0, 236, 1.86e+07, 2.6583928, 0.0179785
UNKN, 2
STRT,
CMD, 174, 190, 2, 0, 229, 1.90e+07, 2.6583928, 0.0179886
UNKN, 2
GPS, 3, 354636400, 1782, 10, 1.51, 37.7510179, -122.4687304, 0.00, 227.08, 0.26, 150.50, 0.060000, 179925
STRT,
CMD, 17, 191, 2, 0, 228, 1.93e+07, 2.6583928, 0.0179985
UNKN, 2
STRT,
CMD, 117, 191, 2, 0, 236, 1.93e+07, 2.6583928, 0.0180086
UNKN, 2
GPS, 3, 354636600, 1782, 10, 1.51, 37.7510177, -122.4687304, 0.00, 227.13, 0.08, 150.50, 0.010000, 180125
STRT,
CMD, 217, 191, 2, 0, 241, 1.96e+07, 2.6583928, 0.0180185
UNKN, 2
NTUN, 1802.46, 0.00, 0.000000, 0.000000, -0.000000, 0.000000, 0.000000, -0.000000, -1.547708e+26, 0.000000, -1.56e+07, -1.07e+07
ATT, -163.23, 0.02, 0.00, -0.13, 0.29, 0.00, 235.67
UNKN, 2
GPS, 3, 354636800, 1782, 10, 1.51, 37.7510176, -122.4687307, 0.00, 227.20, 0.10, 150.50, -0.140000, 180325
STRT,
CMD, 161, 192, 2, 0, 243, 2.05e+07, 2.6583928, 0.0180385
UNKN, 2
STRT,
CMD, 5, 193, 2, 0, 242, 2.06e+07, 2.6583928, 0.0180485
UNKN, 2
GPS, 3, 354637000, 1782, 10, 1.51, 37.7510174, -122.4687312, 0.00, 227.26, 0.38, 150.50, -0.110000, 180544
STRT,
CMD, 105, 193, 2, 0, 238, 2.08e+07, 2.6583928, 0.0180585
UNKN, 2
STRT,
CMD, 205, 193, 2, 0, 223, 2.08e+07, 2.6583928, 0.0180685
UNKN, 2
GPS, 3, 354637200, 1782, 10, 1.51, 37.7510172, -122.4687313, 0.00, 227.23, 0.08, 150.50, -0.090000, 180744
STRT,
CMD, 49, 194, 2, 0, 215, 2.08e+07, 2.6583928, 0.0180785
UNKN, 2
STRT,
CMD, 149, 194, 2, 0, 239, 2.06e+07, 2.6583928, 0.0180885
UNKN, 2
GPS, 3, 354637400, 1782, 10, 1.51, 37.7510173, -122.4687311, 0.00, 227.25, 0.14, 150.50, -0.099999, 180944
STRT,
CMD, 249, 194, 2, 0, 0, 2.06e+07, 2.6583928, 0.0180985
UNKN, 2
STRT,
CMD, 93, 195, 2, 0, 1, 2.08e+07, 2.6583928, 0.0181085
UNKN, 2
GPS, 3, 354637600, 1782, 10, 1.51, 37.7510173, -122.4687309, 0.00, 227.31, 0.07, 150.50, -0.550000, 181125
STRT,
CMD, 193, 195, 2, 0, 2, 2.11e+07, 2.6583928, 0.0181185
UNKN, 2
NTUN, 1812.46, 0.00, 0.000000, 0.000000, -0.000000, 0.000000, 0.000000, -0.000000, -1.547708e+26, 0.000000, -1.56e+07, -1.00e+07
ATT, -153.23, 0.02, 0.00, 0.04, 0.18, 0.00, 192.09
UNKN, 2
GPS, 3, 354637800, 1782, 10, 1.51, 37.7510171, -122.4687306, 0.00, 227.33, 0.28, 150.50, -0.450000, 181344
STRT,
CMD, 137, 196, 2, 0, 3, -2.15e+07, 2.6583928, 0.0181385
UNKN, 2
STRT,
CMD, 237, 196, 2, 0, 244, -2.13e+07, 2.6583928, 0.0181485
UNKN, 2
GPS, 3, 354638000, 1782, 10, 1.51, 37.7510172, -122.4687304, 0.00, 227.38, 0.24, 150.50, -0.500000, 181544
STRT,
CMD, 80, 197, 2, 0, 235, -2.11e+07, 2.6583928, 0.0181585
UNKN, 2
STRT,
CMD, 181, 197, 2, 0, 1, -2.11e+07, 2.6583928, 0.0181685
UNKN, 2
GPS, 3, 354638200, 1782, 10, 1.51, 37.7510174, -122.4687305, 0.00, 227.44, 0.18, 150.50, -0.370000, 181744
STRT,
CMD, 24, 198, 2, 0, 16, -2.10e+07, 2.6583928, 0.0181785
UNKN, 2
STRT,
CMD, 125, 198, 2, 0, 251, -2.10e+07, 2.6583928, 0.0181885
UNKN, 2
GPS, 3, 354638400, 1782, 10, 1.51, 37.7510175, -122.4687307, 0.00, 227.48, 0.14, 150.50, -0.540000, 181944
STRT,
CMD, 224, 198, 2, 0, 235, -2.13e+07, 2.6583928, 0.0181985
UNKN, 2
STRT,
CMD, 68, 199, 2, 0, 239, 2.15e+07, 2.6583928, 0.0182084
UNKN, 2
GPS, 3, 354638600, 1782, 10, 1.51, 37.7510174, -122.4687311, 0.00, 227.55, 0.33, 150.50, -0.530000, 182144
STRT,
CMD, 168, 199, 2, 0, 240, 2.10e+07, 2.6583928, 0.0182184
UNKN, 2
NTUN, 1822.45, 0.00, 0.000000, 0.000000, -0.000000, 0.000000, 0.000000, -0.000000, -1.547708e+26, 0.000000, -1.56e+07, -9387355.
ATT, -143.23, 0.02, 0.00, -0.29, -0.09, 0.00, 87.16
UNKN, 2
GPS, 3, 354638800, 1782, 10, 1.51, 37.7510173, -122.4687315, 0.00, 227.59, 0.17, 150.50, -0.320000, 182343
STRT,
CMD, 112, 200, 2, 0, 218, 2.01e+07, 2.6583928, 0.0182384
UNKN, 2
STRT,
CMD, 212, 200, 2, 0, 226, 1.96e+07, 2.6583928, 0.0182484
UNKN, 2
GPS, 3, 354639000, 1782, 10, 1.51, 37.7510173, -122.4687314, 0.00, 227.60, 0.13, 150.50, -0.099999, 182543
STRT,
CMD, 56, 201, 2, 0, 235, 1.95e+07, 2.6583928, 0.0182584
UNKN, 2
STRT,
CMD, 156, 201, 2, 0, 255, 1.95e+07, 2.6583928, 0.0182684
UNKN, 2
GPS, 3, 354639200, 1782, 10, 1.51, 37.7510175, -122.4687315, 0.00, 227.60, 0.15, 150.50, -0.099999, 182743
STRT,
CMD, 0, 202, 2, 0, 11, 1.96e+07, 2.6583928, 0.0182784
UNKN, 2
STRT,
CMD, 100, 202, 2, 0, 0, 1.98e+07, 2.6583928, 0.0182884
UNKN, 2
GPS, 3, 354639400, 1782, 10, 1.51, 37.7510175, -122.4687317, 0.00, 227.62, 0.19, 150.50, -0.140000, 182943
STRT,
CMD, 200, 202, 2, 0, 246, 1.98e+07, 2.6583928, 0.0182984
UNKN, 2
STRT,
CMD, 44, 203, 2, 0, 240, 1.98e+07, 2.6583928, 0.0183084
UNKN, 2
GPS, 3, 354639600, 1782, 10, 1.51, 37.7510174, -122.4687320, 0.00, 227.68, 0.13, 150.50, -0.390000, 183143
STRT,
CMD, 144, 203, 2, 0, 235, 1.93e+07, 2.6583928, 0.0183184
UNKN, 2
NTUN, 1832.44, 0.00, 0.000000, 0.000000, -0.000000, 0.000000, 0.000000, -0.000000, -1.547708e+26, 0.000000, -1.56e+07, -8731995.
ATT, -133.24, 0.02, 0.00, -0.18, 0.07, 0.00, 594.02
UNKN, 2
GPS, 3, 354639800, 1782, 10, 1.51, 37.7510176, -122.4687319, 0.00, 227.68, 0.06, 150.50, 0.070000, 183343
STRT,
CMD, 88, 204, 2, 0, 242, 1.93e+07, 2.6583928, 0.0183384
UNKN, 2
STRT,
CMD, 188, 204, 2, 0, 255, 1.93e+07, 2.6583928, 0.0183484
UNKN, 2
GPS, 3, 354640000, 1782, 10, 1.51, 37.7510176, -122.4687318, 0.00, 227.70, 0.21, 150.50, -0.070000, 183543
STRT,
CMD, 32, 205, 2, 0, 6, 1.96e+07, 2.6583928, 0.0183584
UNKN, 2
STRT,
CMD, 132, 205, 2, 0, 0, 1.96e+07, 2.6583928, 0.0183684
UNKN, 2
GPS, 3, 354640200, 1782, 10, 1.51, 37.7510177, -122.4687318, 0.00, 227.69, 0.19, 150.50, -0.099999, 183743
STRT,
CMD, 232, 205, 2, 0, 250, 2.01e+07, 2.6583928, 0.0183784
UNKN, 2
STRT,
CMD, 76, 206, 2, 0, 253, 2.06e+07, 2.6583928, 0.0183884
UNKN, 2
GPS, 3, 354640400, 1782, 10, 1.51, 37.7510180, -122.4687322, 0.00, 227.69, 0.15, 150.50, 0.070000, 183943
STRT,
CMD, 175, 206, 2, 0, 255, 2.10e+07, 2.6583928, 0.0183984
UNKN, 2
STRT,
CMD, 19, 207, 2, 0, 0, 2.10e+07, 2.6583928, 0.0184084
UNKN, 2
GPS, 3, 354640600, 1782, 10, 1.51, 37.7510183, -122.4687324, 0.00, 227.70, 0.11, 150.50, -0.010000, 184142
STRT,
CMD, 119, 207, 2, 0, 3, 2.10e+07, 2.6583928, 0.0184183
UNKN, 2
NTUN, 1842.44, 0.00, 0.000000, 0.000000, -0.000000, 0.000000, 0.000000, -0.000000, -1.547708e+26, 0.000000, -1.56e+07, -8077290.
ATT, -123.24, 0.02, 0.00, 0.09, 0.01, 0.00, 594.02
UNKN, 2
GPS, 3, 354640800, 1782, 10, 1.51, 37.7510186, -122.4687325, 0.00, 227.72, 0.13, 150.50, -0.130000, 184343
STRT,
CMD, 63, 208, 2, 0, 13, 2.10e+07, 2.6583928, 0.0184383
UNKN, 2
STRT,
CMD, 163, 208, 2, 0, 8, 2.10e+07, 2.6583928, 0.0184483
UNKN, 2
GPS, 3, 354641000, 1782, 10, 1.51, 37.7510189, -122.4687325, 0.00, 227.68, 0.20, 150.50, 0.120000, 184542
STRT,
CMD, 7, 209, 2, 0, 6, 2.11e+07, 2.6583928, 0.0184583
UNKN, 2
STRT,
CMD, 107, 209, 2, 0, 17, 2.10e+07, 2.6583928, 0.0184683
UNKN, 2
GPS, 3, 354641200, 1782, 10, 1.51, 37.7510191, -122.4687324, 0.00, 227.72, 0.14, 150.50, -0.090000, 184742
STRT,
CMD, 207, 209, 2, 0, 25, 2.08e+07, 2.6583928, 0.0184783
UNKN, 2
STRT,
CMD, 51, 210, 2, 0, 14, 2.10e+07, 2.6583928, 0.0184883
UNKN, 2
GPS, 3, 354641400, 1782, 10, 1.51, 37.7510192, -122.4687321, 0.00, 227.71, 0.14, 150.50, 0.010000, 184942
STRT,
CMD, 151, 210, 2, 0, 8, 2.13e+07, 2.6583928, 0.0184983
UNKN, 2
STRT,
CMD, 251, 210, 2, 0, 15, -2.13e+07, 2.6583928, 0.0185083
UNKN, 2
GPS, 3, 354641600, 1782, 10, 1.51, 37.7510193, -122.4687320, 0.00, 227.68, 0.17, 150.50, -0.280000, 185142
STRT,
CMD, 95, 211, 2, 0, 18, -2.08e+07, 2.6583928, 0.0185183
UNKN, 2
NTUN, 1852.45, 0.00, 0.000000, 0.000000, -0.000000, 0.000000, 0.000000, -2129152., 0.000000, 0.000000, 2.56, -1.78e+07
CMD, 195, 211, 2, 0, 7, -2.11e+07, 2.6583928, 0.0185283
UNKN, 2
GPS, 3, 354641800, 1782, 10, 1.51, 37.7510193, -122.4687323, 0.00, 227.74, 0.17, 150.50, -0.400000, 185342
STRT,
CMD, 39, 212, 2, 0, 254, -2.11e+07, 2.6583928, 0.0185383
UNKN, 2
STRT,
CMD, 139, 212, 2, 0, 250, -2.13e+07, 2.6583928, 0.0185483
UNKN, 2
GPS, 3, 354642000, 1782, 10, 1.51, 37.7510193, -122.4687325, 0.00, 227.78, 0.12, 150.50, -0.420000, 185542
STRT,
CMD, 239, 212, 2, 0, 248, -2.13e+07, 2.6583928, 0.0185583
UNKN, 2
STRT,
CMD, 83, 213, 2, 0, 250, -2.13e+07, 2.6583928, 0.0185683
UNKN, 2
GPS, 3, 354642200, 1782, 10, 1.51, 37.7510194, -122.4687326, 0.00, 227.79, 0.30, 150.50, -0.770000, 185742
STRT,
CMD, 183, 213, 2, 0, 251, 2.11e+07, 2.6583928, 0.0185783
UNKN, 2
STRT,
CMD, 27, 214, 2, 0, 249, 2.11e+07, 2.6583928, 0.0185883
UNKN, 2
GPS, 3, 354642400, 1782, 10, 1.51, 37.7510194, -122.4687331, 0.00, 227.88, 0.29, 150.50, -0.660000, 185942
STRT,
CMD, 126, 214, 2, 0, 246, 2.10e+07, 2.6583928, 0.0185983
UNKN, 2
STRT,
CMD, 226, 214, 2, 0, 238, 2.08e+07, 2.6583928, 0.0186083
UNKN, 2
GPS, 3, 354642600, 1782, 10, 1.51, 37.7510191, -122.4687334, 0.00, 227.92, 0.36, 150.50, -0.530000, 186142
STRT,
CMD, 71, 215, 2, 0, 231, 2.05e+07, 2.6583928, 0.0186183
UNKN, 2
NTUN, 1862.44, 0.00, 0.000000, 0.000000, -0.000000, 0.000000, 0.000000, -0.000000, -1.547708e+26, 0.000000, -1.56e+07, -6767226.
ATT, -103.26, 0.02, 0.00, -0.30, 0.07, 0.00, 0.00
UNKN, 2
GPS, 3, 354642800, 1782, 10, 1.51, 37.7510187, -122.4687333, 0.00, 227.93, 0.32, 150.50, -0.630000, 186342
STRT,
CMD, 14, 216, 2, 0, 223, 1.98e+07, 2.6583928, 0.0186382
UNKN, 2
STRT,
CMD, 114, 216, 2, 0, 229, 1.95e+07, 2.6583928, 0.0186482
UNKN, 2
GPS, 3, 354643000, 1782, 10, 1.51, 37.7510182, -122.4687330, 0.00, 227.91, 0.41, 150.50, -0.500000, 186542
STRT,
CMD, 214, 216, 2, 0, 231, 1.61e+07, 2.6583928, 0.0186582
UNKN, 2
STRT,
CMD, 58, 217, 2, 0, 226, 1.39e+07, 2.6583928, 0.0186682
UNKN, 2
GPS, 3, 354643200, 1782, 10, 1.51, 37.7510179, -122.4687334, 0.00, 227.98, 0.39, 150.50, -0.660000, 186742
STRT,
CMD, 158, 217, 2, 0, 223, 1.33e+07, 2.6583928, 0.0186782
UNKN, 2
STRT,
CMD, 2, 218, 2, 0, 229, 1.93e+07, 2.6583928, 0.0186882
UNKN, 2
GPS, 3, 354643400, 1782, 10, 1.51, 37.7510182, -122.4687338, 0.00, 228.02, 0.32, 150.50, -0.390000, 186941
STRT,
CMD, 102, 218, 2, 0, 237, 2.15e+07, 2.6583928, 0.0186982
UNKN, 2
STRT,
CMD, 202, 218, 2, 0, 248, 1.06e+07, 2.6583928, 0.0187082
UNKN, 2
GPS, 3, 354643600, 1782, 10, 1.51, 37.7510185, -122.4687337, 0.00, 228.04, 0.09, 150.50, -0.490000, 187141
STRT,
CMD, 46, 219, 2, 0, 9, 1174359., 2.6583928, 0.0187182
UNKN, 2
NTUN, 1872.42, 0.00, 0.000000, 0.000000, -0.000000, 0.000000, 0.000000, -0.000000, -1.547708e+26, 0.000000, -1.56e+07, -6111866.
ATT, -93.26, 0.02, 0.00, 0.07, -0.03, 0.00, 172.31
UNKN, 2
GPS, 3, 354643800, 1782, 10, 1.51, 37.7510187, -122.4687333, 0.00, 228.01, 0.19, 150.50, -0.020000, 187341
STRT,
CMD, 246, 219, 2, 0, 5, 2852140., 2.6583928, 0.0187382
UNKN, 2
STRT,
CMD, 90, 220, 2, 0, 35, 1.81e+07, 2.6583928, 0.0187482
UNKN, 2
GPS, 3, 354644000, 1782, 10, 1.51, 37.7510189, -122.4687334, 0.00, 228.07, 0.14, 150.50, -0.450000, 187541
STRT,
CMD, 190, 220, 2, 0, 22, 1.26e+07, 2.6583929, 0.0187582
UNKN, 2
STRT,
CMD, 34, 221, 2, 0, 47, 1.71e+07, 2.6583929, 0.0187682
UNKN, 2
GPS, 3, 354644200, 1782, 10, 1.51, 37.7510189, -122.4687338, 0.00, 228.17, 0.21, 150.50, -0.530000, 187741
STRT,
CMD, 134, 221, 2, 0, 80, 7885089., 2.6583929, 0.0187782
UNKN, 2
STRT,
CMD, 234, 221, 2, 0, 95, 1.76e+07, 2.6583928, 0.0187882
UNKN, 2
GPS, 3, 354644400, 1782, 10, 1.51, 37.7510189, -122.4687338, 0.00, 228.16, 0.17, 150.50, -0.200000, 187941
STRT,
CMD, 77, 222, 2, 0, 38, 1.68e+07, 2.6583928, 0.0187982
UNKN, 2
STRT,
CMD, 178, 222, 2, 0, 17, 2.01e+07, 2.6583928, 0.0188082
UNKN, 2
GPS, 3, 354644600, 1782, 10, 1.51, 37.7510191, -122.4687336, 0.00, 228.13, 0.10, 150.50, -0.020000, 188141
STRT,
CMD, 21, 223, 2, 0, 38, 1.46e+07, 2.6583928, 0.0188182
UNKN, 2
NTUN, 1882.42, 0.00, 0.000000, 0.000000, -0.000000, 0.000000, 0.000000, -0.000000, -1.547708e+26, 0.000000, -1.56e+07, -5456506.
ATT, -83.26, 0.02, 0.00, 0.30, -0.10, 0.00, 87.16
UNKN, 2
GPS, 3, 354644800, 1782, 10, 1.51, 37.7510191, -122.4687337, 0.00, 228.10, 0.25, 150.50, -0.050000, 188341
STRT,
CMD, 221, 223, 2, 0, 22, 8556372., 2.6583928, 0.0188381
UNKN, 2
STRT,
CMD, 65, 224, 2, 0, 16, -4865411., 2.6583927, 0.0188481
UNKN, 2
GPS, 3, 354645000, 1782, 10, 1.51, 37.7510192, -122.4687341, 0.00, 228.13, 0.19, 150.50, -0.270000, 188541
STRT,
CMD, 165, 224, 2, 0, 236, -2.10e+07, 2.6583927, 0.0188581
UNKN, 2
STRT,
CMD, 9, 225, 2, 0, 12, 1.09e+07, 2.6583927, 0.0188681
UNKN, 2
GPS, 3, 354645200, 1782, 10, 1.51, 37.7510194, -122.4687344, 0.00, 228.17, 0.26, 150.50, -0.450000, 188741
STRT,
CMD, 109, 225, 2, 0, 16, 1.61e+07, 2.6583927, 0.0188781
UNKN, 2
STRT,
CMD, 209, 225, 2, 0, 7, 2.00e+07, 2.6583927, 0.0188881
UNKN, 2
GPS, 3, 354645400, 1782, 10, 1.51, 37.7510195, -122.4687348, 0.00, 228.23, 0.19, 150.50, -0.360000, 188941
STRT,
CMD, 53, 226, 2, 0, 251, -1.44e+07, 2.6583927, 0.0188981
UNKN, 2
STRT,
CMD, 153, 226, 2, 0, 242, -1.22e+07, 2.6583927, 0.0189081
UNKN, 2
GPS, 3, 354645600, 1782, 10, 1.51, 37.7510196, -122.4687351, 0.00, 228.27, 0.16, 150.50, -0.280000, 189141
STRT,
CMD, 253, 226, 2, 0, 229, -7549763., 2.6583927, 0.0189181
UNKN, 2
NTUN, 1892.42, 0.00, 0.000000, 0.000000, -0.000000, 0.000000, 0.000000, -0.000000, -1.547708e+26, 0.000000, -1.56e+07, -4801801.
ATT, -73.27, 0.02, 0.00, -0.25, -0.04, 0.00, 150.52
UNKN, 2
GPS, 3, 354645800, 1782, 10, 1.51, 37.7510197, -122.4687350, 0.00, 228.23, 0.22, 150.50, -0.450000, 189341
STRT,
CMD, 197, 227, 2, 0, 14, 8891981., 2.6583927, 0.0189381
UNKN, 2
STRT,
CMD, 41, 228, 2, 0, 95, -1.41e+07, 2.6583926, 0.0189481
UNKN, 2
GPS, 3, 354646000, 1782, 10, 1.51, 37.7510200, -122.4687350, 0.00, 228.29, 0.18, 150.50, -0.550000, 189540
STRT,
CMD, 141, 228, 2, 0, 146, -1.63e+07, 2.6583925, 0.0189581
UNKN, 2
STRT,
CMD, 241, 228, 2, 0, 131, -2.10e+07, 2.6583925, 0.0189681
UNKN, 2
GPS, 3, 354646200, 1782, 10, 1.51, 37.7510210, -122.4687356, 0.00, 228.37, 1.02, 230.17, -0.650000, 189740
STRT,
CMD, 85, 229, 2, 0, 132, 7549824., 2.6583926, 0.0189781
UNKN, 2
STRT,
CMD, 185, 229, 2, 0, 124, 1.98e+07, 2.6583926, 0.0189881
UNKN, 2
GPS, 3, 354646400, 1782, 10, 1.51, 37.7510218, -122.4687359, 0.00, 228.36, 0.37, 230.17, -0.510000, 189940
STRT,
CMD, 28, 230, 2, 0, 138, -1.56e+07, 2.6583926, 0.0189981
UNKN, 2
STRT,
CMD, 128, 230, 2, 0, 116, -7046462., 2.6583926, 0.0190081
UNKN, 2
GPS, 3, 354646600, 1782, 10, 1.51, 37.7510221, -122.4687357, 0.00, 228.33, 0.39, 230.17, -0.210000, 190140
STRT,
CMD, 229, 230, 2, 0, 88, -8724103., 2.6583926, 0.0190181
UNKN, 2
NTUN, 1902.43, 0.00, 0.000000, 0.000000, -0.000000, 0.000000, 0.000000, -0.000000, -1.547708e+26, 0.000000, -1.56e+07, -4146441.
ATT, -63.27, 0.02, 0.00, 0.91, 0.21, 0.00, 614.80
UNKN, 2
GPS, 3, 354646800, 1782, 10, 1.51, 37.7510223, -122.4687356, 0.00, 228.29, 0.17, 230.17, -0.140000, 190340
STRT,
CMD, 173, 231, 2, 0, 121, 4194378., 2.6583927, 0.0190381
UNKN, 2
STRT,
CMD, 16, 232, 2, 0, 101, 167892.5, 2.6583927, 0.0190481
UNKN, 2
GPS, 3, 354647000, 1782, 10, 1.51, 37.7510219, -122.4687356, 0.00, 228.27, 0.44, 230.17, -0.040000, 190540
STRT,
CMD, 116, 232, 2, 0, 82, 1.14e+07, 2.6583926, 0.0190581
UNKN, 2
STRT,
CMD, 216, 232, 2, 0, 67, 1.69e+07, 2.6583926, 0.0190680
UNKN, 2
GPS, 3, 354647200, 1782, 10, 1.51, 37.7510216, -122.4687356, 0.00, 228.27, 0.14, 230.17, -0.360000, 190740
STRT,
CMD, 60, 233, 2, 0, 58, 8724324., 2.6583926, 0.0190780
UNKN, 2
STRT,
CMD, 160, 233, 2, 0, 70, 9059845., 2.6583926, 0.0190880
UNKN, 2
FMT, 128, 89, FMT, BBnNZ, Type,Length,Name,Format
FMT, 129, 23, PARM, Nf, Name,Value
FMT, 130, 45, GPS, BIHBcLLeeEefI, Status,TimeMS,Week,NSats,HDop,Lat,Lng,RelAlt,Alt,Spd,GCrs,VZ,T
FMT, 131, 31, IMU, Iffffff, TimeMS,GyrX,GyrY,GyrZ,AccX,AccY,AccZ
FMT, 135, 31, IMU2, Iffffff, TimeMS,GyrX,GyrY,GyrZ,AccX,AccY,AccZ
FMT, 132, 67, MSG, Z, Message
FMT, 133, 23, RCIN, Ihhhhhhhh, TimeMS,Chan1,Chan2,Chan3,Chan4,Chan5,Chan6,Chan7,Chan8
FMT, 134, 23, RCOU, Ihhhhhhhh, TimeMS,Chan1,Chan2,Chan3,Chan4,Chan5,Chan6,Chan7,Chan8
FMT, 8, 13, ATT, IccC, TimeMS,Roll,Pitch,Yaw
FMT, 3, 28, PM, IIHIBBhhhBH, TimeMS,LTime,MLC,gDt,RNCnt,RNBl,GDx,GDy,GDz,I2CErr,INSErr
FMT, 4, 24, CMD, IBBBBBeLL, TimeMS,CTot,CNum,CId,COpt,Prm1,Alt,Lat,Lng
FMT, 11, 27, CAM, IIHLLeccC, TimeMS,GPSTime,GPSWeek,Lat,Lng,Alt,Roll,Pitch,Yaw
FMT, 6, 9, STRT, IBB, TimeMS,SType,CTot
FMT, 1, 19, CTUN, Ihcchf, TimeMS,Steer,Roll,Pitch,ThrOut,AccY
FMT, 2, 18, NTUN, IHfHHb, TimeMS,Yaw,WpDist,TargBrg,NavBrg,Thr
FMT, 7, 23, SONR, IfHHHbHCb, TimeMS,LatAcc,S1Dist,S2Dist,DCnt,TAng,TTim,Spd,Thr
FMT, 5, 19, CURR, IhhhHf, TimeMS,Thr,Volt,Curr,Vcc,CurrTot
FMT, 9, 9, MODE, IMB, TimeMS,Mode,ModeNum
FMT, 10, 25, MAG, Ihhhhhhhhh, TimeMS,MagX,MagY,MagZ,OfsX,OfsY,OfsZ,MOfsX,MOfsY,MOfsZ
FMT, 12, 25, MAG2, Ihhhhhhhhh, TimeMS,MagX,MagY,MagZ,OfsX,OfsY,OfsZ,MOfsX,MOfsY,MOfsZ
FMT, 13, 15, STER, Iff, TimeMS,Demanded,Achieved
FMT, 4, 24, CMD, IBBBBBeLL, TimeMS,CTot,CNum,CId,COpt,Prm1,Alt,Lat,Lng
FMT, 11, 27, CAM, IIHLLeccC, TimeMS,GPSTime,GPSWeek,Lat,Lng,Alt,Roll,Pitch,Yaw
FMT, 6, 9, STRT, IBB, TimeMS,SType,CTot
FMT, 1, 19, CTUN, Ihcchf, TimeMS,Steer,Roll,Pitch,ThrOut,AccY
FMT, 2, 18, NTUN, IHfHHb, TimeMS,Yaw,WpDist,TargBrg,NavBrg,Thr
FMT, 7, 23, SONR, IfHHHbHCb, TimeMS,LatAcc,S1Dist,S2Dist,DCnt,TAng,TTim,Spd,T0.00000
PARM1500.000
PPARM, SPEED2THR_IMAX, 4000.000
GPS, 0, 0, 0, 0, 0.00, 0.0000000, 0.0000000, 0.00, 0.00, 0.00, 0.00, 0.000000, 6443
STRT,
CMD, 51, 25, 0, 0, 255, -3523213., 2.6583808, 0.0006451
UNKN, 2
STRT,
CMD, 144, 25, 0, 0, 7, -3523251., 2.6583808, 0.0006544
UNKN, 2
GPS, 1, 0, 0, 0, 99.99, 37.7510218, -122.4687355, 0.00, 228.29, 0.00, 0.00, 0.000000, 6583
STRT,
CMD, 243, 25, 0, 0, 15, -3187740., 2.6583808, 0.0006644
UNKN, 2
STRT,
C
CMD, 75, 28, 0, 0, 71, -1510223., 2.6583808, 0.0007243
UNKN, 2
NTUN, 77355, 0.00, 228.29, 0.00, 0.00, 0.000000, 7223
STRT,
CMD, 75, 28, 0, 0, 71, -1510223., 2.6583808, 0.0007243
UNKN, 2
NTUN, 73.25, 0.00, 0.000000, 0.000000, -0.000000, 0.000000, 0.000000, -0.000000, -1.547708e+26, 0.000000, -1.56e+07, 4812331.
ATT, 73.43, 0.00, -178.78, 0.80, -1.20, 0.00, 647.62
UNKN, 2
GPS, 1, 0, 0, 0, 99.99, 37.7510218, -122.4687355, 0.00, 228.29, 0.00, 0.00, 0.000000, 7423
STRT,
CMD, 19, 29,0.00, 228.29, 0.00, 0.00, 0, 0, 140, 1006103., 2.6583809, 0.0008143
UNKN, 2
GPS, 1, 0, 0, 0, 99.99, 37.7510218, -122.4687355, 0.00, 228.29, 0.00, 0.00, 0.000000, 8222
STRT,
CMD, 51, 32, 0, 0, 146, 1509397., 2.6583809, 0.0008243
UNKN, 2
NTUN, 83.23, 0.00, 0.000000, 0.000000, -0.000000, 0.000000, 0.000000, -0.000000, -1.547708e+26, 0.000000, -1.56e+07, 5467690.
ATT, 83.43, 0.00, -178.78, 1.52, -2.25, 0.00, 293.52
UNKN, 2
GPS, 1, 0, 0, 0, 99.99, 37.7510218, -122.4687355, 0.00, 2
STRT,
583809, 0.0008743
UNKN, 2
GPS, 1, 0, 0, 0, 99.99, 37.7510218, -122.4687355, 0.00, 228.29, 0.00, 0.00, 0.000000, 8822
STRT,
CMD, 138,.0008743
UNKN, 2
GPS, 1, 0, 0, 0, 99.99, 37.7510218, -122.4687355, 0.00, 228.29, 0.00, 0.00, 0.000000, 8822
STRT,
CMD, 138, 34, 0, 0, 182, 4025838., 2.6583809, 0.0008843
UNKN, 2
STRT,
CMD, 238, 34, 0, 0, 187, 4696906., 2.6583809, 0.0008942
UNKN, 2
GPS, 1, 0, 0, 0, 99.99, 37.7510218, -122.4687355, 0.00, 228.29, 0.00, 0.00, 0.000000, 9022
STRT,
CMD, 82, 35, 0, 0, 193, 5032430., 2.6583809, 0.0009042
UNKN, 2
STRT,
CMD, 182, 35, 0, 0, 199, 5535726., 2.6583809, 0.0009142
UNKN, 2
GPS, 1, 0, 0, 0, 99.99, 37.7510218, -122.4687355, 0.00, 228.29, 0.00, 0.00, 0.000000, 9222
STRT,
CMD, 26, 36, 0, 0, 204, 6206794., 2.6583809, 0.0009242
UNKN, 2
NTUN, 93.23, 0.00, 0.000000, 0.000000, -0.000000, 0.000000, 0.000000, -0.000000, -1.547708e+26, 0.000000, -1.56e+07, 6122395.
ATT, 93.42, 0.00, -178.78, 2.09, -3.10, 0.00, 240.68
UNKN, 2
GPS, 1, 0, 0, 0, 99.99, 37.7510218, -122.4687355, 0.00, 228.29, 0.00, 0.00, 0.000000, 9422
STRT,
CMD, 226, 36, 0, 0, 214, 6877845., 2.6583809, 0.0009442
UNKN, 2
STRT,
CMD, 70, 37, 0, 0, 220, 7213371., 2.6583809, 0.0009542
UNKN, 2
GPS, 1, 0, 0, 0, 99.99, 37.7510218, -122.4687355, 0.00, 228.29, 0.00, 0.00, 0.000000, 9622
STRT,
CMD, 170, 37, 0, 0, 225, 7716670., 2.6583809, 0.0009642
UNKN, 2
STRT,
CMD, 15, 38, 0, 0, 229, 8387738., 2.6583809, 0.0009744
UNKN, 2
GPS, 1, 0, 0, 0, 99.99, 37.7510218, -122.4687355, 0.00, 228.29, 0.00, 0.00, 0.000000, 9822
STRT,
CMD, 114, 38, 0, 0, 234, 9058811., 2.6583809, 0.0009842
UNKN, 2
STRT,
CMD, 214, 38, 0, 0, 239, 9394335., 2.6583809, 0.0009942
UNKN, 2
GPS, 1, 0, 0, 0, 99.99, 37.7510218, -122.4687355, 0.00, 228.29, 0.00, 0.00, 0.000000, 10021
STRT,
CMD, 58, 39, 0, 0, 243, 1.01e+07, 2.6583809, 0.0010042
UNKN, 2
STRT,
CMD, 158, 39, 0, 0, 247, 1.06e+07, 2.6583809, 0.0010142
UNKN, 2
GPS, 1, 0, 0, 0, 99.99, 37.7510218, -122.4687355, 0.00, 228.29, 0.00, 0.00, 0.000000, 10221
STRT,
99, 37.7510218, -122.4687355, 0.00, 228.29, 0.00, 0.00, 0.000000, 10622
STRT,
CMD, 145, 41, 0, 0, 12, 1.31e+07, 2.6583809, 0.0010642
UNKN, 2
STRT,
CMD, 245, 41, 0, 0, 15, 1.38e+07, 2.6583809, 0.0010742
UNKN, 2
GPS, 1, 0, 0, 0, 99.99, 37.7510218, -122.4687355, 0.00, 228.29, 0.00, 0.00, 0.000000, 10821
STRT,
CMD, 91, 42, 0, 0, 18, 1.44e+07, 2.6583809, 0.0010843
UNKN, 2
STRT,
CMD, 189, 42, 0, 0, 22, 1.51e+07, 2.6583809, 0.0010942
UNKN, 2
GPS, 1, 0, 0, 0, 99.99, 37.7510218, -122.4687355, 0.00, 228.29, 0.00, 0.00, 0.0000
UNKN, 2
NTUN, 113.22, 0.00, 0.000000, 0.000000, -0.000000, 0.000000, 0.000000, -0.000000, -1.547708e+26, 0.000000, -1.56e+07,
UNKN, 2
NTUN, 113.22, 0.00, 0.000000, 0.000000, -0.000000, 0.000000, 0.000000, -0.000000, -1.547708e+26, 0.000000, -1.56e+07, 7432460.
ATT, 113.41, 0.00, 0.00, 2.95, -4.36, 0.00, 557.71
UNKN, 2
GPS, 1, 0, 0, 0, 99.99, 37.7510218, -122.4687355, 0.00, 228.29, 0.00, 0.00, 0.000000, 11421
STRT,
CMD, 177, 44, 0, 0, 42, 1.76e+07, 2.6583809, 0.0011441
UNKN, 2
STRT,
C 0, 66, -
GPS, 1, 0, 0, 0, 99.99, 37.7510218, -122.4687355, 0.00, 228.29, 0.00, 0.00, 0.000000, 12221
STRT,
CMD, 209, 47, 0, 0, 66, -1.98e+07, 2.6583809, 0.0012241
UNKN, 2
NTUN, 123.21, 0.00, 0.000000, 0.000000, -0.000000, 0.000000, 0.000000, -0.000000, -1.547708e+26, 0.000000, -1.56e+07, 8087820.
ATT, 123.41, 0.00, 0.00, 3.24, -4.86, 0.00, 446.78
UNKN, 2
GPS, 1, 0, 0, 0, 99.99, 37.7510218, -122.4687355, 0.00, 228.29, 0.00, 0.00, 0.000000, 12420
STRT,
CMD, 153, 48, 0, 0, 71, -1.86e+07, 2.6583809, 0.0012441
U000000, 13020
STRT,
CMD, 242, 50, 0, 0, 87, -1.46e+07, 2.6583809, 0.0013042
UNKN, 2
ST4687355, 0.00, 228.29, 0.00, 0.00, 0.000000, 13020
STRT,
CMD, 242, 50, 0, 0, 87, -1.46e+07, 2.6583809, 0.0013042
UNKN, 2
STRT,
CMD, 84, 51, 0, 0, 90, -1.38e+07, 2.6583809, 0.0013140
UNKN, 2
GPS, 1, 0, 0, 0, 99.99, 37.7510218, -122.4687355, 0.00, 228.29, 0.00, 0.00, 0.000000, 13220
STRT,
CMD, 184, 51, 0, 0, 93, -1.33e+07, 2.6583809, 0.0013240
UNKN, 20013940
UNKN, 2
GPS, 1, 0, 0, 0, 99.99, 37.7510218, -122.4687355, 0.00, 228.29, 0.00, 0.00, 0.000000, 14020
STRT,
83809, 0.0013940
UNKN, 2
GPS, 1, 0, 0, 0, 99.99, 37.7510218, -122.4687355, 0.00, 228.29, 0.00, 0.00, 0.000000, 14020
STRT,
CMD, 216, 54, 0, 0, 114, -8893355., 2.6583809, 0.0014040
UNKN, 2
STRT,
CMD, 61, 55, 0, 0, 116, -8222277., 2.6583809, 0.0014141
UNKN, 2
GPS, 1, 0, 0, 0, 99.99, 37.7510218, -122.4687355, 0.00, 228.29, 0.00, 0.00, 0.000000, 14220
STRT,
CMD, 160, 55, 0, 0, 118, -7718971., 2
STRT,
CMD, 203, 56, 0, 0, 122, -5537948., 2.65820
STRT,
CMD, 104, 56, 0, 0, 122, -6376804., 2.6583809, 0.0014440
UNKN, 2
STRT,
CMD, 203, 56, 0, 0, 122, -5537948., 2.6583809, 0.0014540
UNKN, 2
GPS, 1, 0, 0, 0, 99.99, 37.7510218, -122.4687355, 0.00, 228.29, 0.00, 0.00, 0.000000, 14619
STRT,
CMD, 48, 57, 0, 0, 124, -4531323., 2.6583809, 0.0014640
UNKN, 2
STRT,
CMD, 147, 57, 0, 0, 126, -4028012., 2.6583809, 0.0014740
UNKN, 2
GPS, 1, 0, 0, 0, 99.99, 37.7510218, -122.4687355, 0.00, 228.29, 0.00, 0.00, 0.000000, 14819
STRT,
CMD, 248, 57, 0, 0, 127, -3189158., 2.6583809, 0.0014840
UNKN, 2
STRT,
CMD, 91, 58, 0, 0, 128, -2685847., 2.6583809, 0.0014939
UNKN, 2
GPS, 1, 0, 0, 0, 99.99, 37.7510218, -122.4687355, 0.00, 228.29, 0.00, 0.00, 0.000000, 15021
STRT,
CMD, 191, 58, 0, 0, 130, -2182538., 2.6583809, 0.0015039
UNKN, 2
STRT,
CMD, 35, 59, 0, 0, 132, -1847002., 2.6583809, 0.0015139
UNKN, 2
GPS, 1, 0, 0, 0, 99.99, 37.7510218, -122.4687355, 0.00, 228.29, 0.00, 0.00, 0.000000, 15219
STRT,
CMD, 137, 59, 9, 0.0015439
UNKN, 2
STRT,
CMD, 179, 60, 0, 0.00, 0.00, 0.000000, 15419
STRT,
CMD, 78, 60, 0, 0, 131, -337072.6, 2.6583809, 0.0015439
UNKN, 2
STRT,
CMD, 179, 60, 0, 0, 134, -1533.43, 2.6583809, 0.0015539
UNKN, 2
GPS, 1, 0, 0, 0, 99.99, 37.7510218, -122.4687355, 0.00, 228.29, 0.00, 0.00, 0.000000, 15619
STRT,
CMD, 22, 61, 0, 0, 133, 1172872., 2.6583810, 0.0015639
UNKN, 2
STRT,
CMD, 122, 61, 0, 0, 132, 2179505., 2.6583810, 0.0015739
UNKN, 2
GPS, 1, 0, 0, 0, 99.99, 37.7510218, -122.4687355, 0.00, 228.29, 0.00, 0.00, 0.000000, 15818
STRT,
CMD, 222, 61, 0, 0, 134, 2850588., 2.6583810, 0.0015839
UNKN, 2
STRT,
CMD, 66, 62, 0, 0, 135, 3521672., 2.6583810, 0.0015938
UNKN, 2
GPS, 1, 0, 0, 0, 99.99, 37.7510218, -122.4687355, 0.00, 228.29, 0.00, 0.00, 0.000000, 16018
STRT,
CMD, 166, 62, 0, 0, 135, 4024986., 2.6583810, 0.0016038
UNKN, 2
STRT,
CMD, 10, 63, 0, 0, 136, 4528297., 2.6583810, 0.0016138
UNKN, 2
GPS, 1, 0, 0, 0, 99.99, 37.7510218, -122.4687355, 0.00, 229228.4e+07
ATT, 173.38, 0.00, 0.00, 4.10, -6.31, 0.00, 452.03
UNKN, 2
GPS, 1, 0, 0, 0, 99.99, 37.7510218, -122.4687355, 0.00, 228.29, 0.00, 0.00, 0.000000, 17418
STRT,
CMD, 32, 68, 0, 0, 156, 1.09e+07, 2.6583810, 0.0017440
UNKN, 2
STRT,
CMD, 129, 68, 0, 0, 160, 1.14e+07, 2.6583810, 0.0017538
UNKN, 2
GPS, 1, 0, 0, 0, 99.99, 37.7510218, -122.4687355, 0.00, 228.29, 0.00, 0.00, 0.000000, 17618
STRT,
CMD, 229, 68, 0, 0, 162, 1.14e+07, 2.6583810, 0.0017638
UNKN, 2
STRT,
CMD, 73, 69, 0, 0, 162, 1.19e+07, 2.65 0, 175, 1.19e+07, 2.6583810, 0.0018038
UNKN, 2
STRT,
5, 0.00, 228.29, 0.00, 0.00, 0.000000, 18037
STRT,
CMD, 118, 70, 0, 0, 175, 1.19e+07, 2.6583810, 0.0018038
UNKN, 2
STRT,
CMD, 217, 70, 0, 0, 174, 1.24e+07, 2.6583810, 0.0018137
UNKN, 2
GPS, 1, 0, 0, 0, 99.99, 37.7510218, -122.4687355, 0.00, 228.29, 0.00, 0.00, 0.000000, 18217
STRT,
CMD, 61, 71, 0, 0, 174, 1.33e+07, 2.6583810, 0.0018237
UNKN, 2
NTUN, 183.20, 0.00, 0.000000, 0.000000, -0.000000, 0.000000, 0.000000, -0.000000, -1.54729, 0.00, 0.00, 0.000000, 18817
STRT,
CMD, 149, 73, 0, 0, 194, 1.33e+07, 2.6583810, 0.0018837
UNKN, -122.4687355, 0.00, 228.29, 0.00, 0.00, 0.000000, 18817
STRT,
CMD, 149, 73, 0, 0, 194, 1.33e+07, 2.6583810, 0.0018837
UNKN, 2
STRT,
CMD, 249, 73, 0, 0, 185, 1.49e+07, 2.6583810, 0.0018937
UNKN, 2
GPS, 1, 0, 0, 0, 99.99, 37.7510218, -122.4687355, 0.00, 228.29, 0.00, 0.00, 0.000000, 19017
STRT,
CMD, 93, 74, 0, 0, 179, 1.66e+07, 2.6583810, 0.0019037
UNKN, 2
STRT,
CMD, 193, 74, 0, 0, 183, 1.64e+07, 2.6583810, 0.0019137
UNKN, 2
GPS, 1, 0, 0, 0, 99.99, 37.7510218, -122.4687355, 0.00, 228.29, 0.00, 0.00, 0.000000, 19216
STRT,
CMD, 37, 75, 0, 0, 192, 1.53e+07, 2.6583810, 0.0019237
UNKN, 2
NTUN, 193.17, 0.00, 0.000000, 0.000000, -0.000000, 0.000000, 0.000000, -0.000000, -1.547708e+26, 0.000000, -1.56e+07, 1.27e+07
ATT, 193.37, 0.00, 0.00, 4.44, -6.77, 0.00, 209.12
UNKN, 2
GPS, 1, 0, 0, 0, 99.99, 37.7510218, -122.4687355, 0.00, 228.29, 0.00, 0.00, 0.000000, 19418
STRT,
CMD, 237, 75, 0, 0, 191, 1.09e+07, 2.6583810, 0.0019437
UNKN, 2
STRT,
CMD, 81, 76, 0, 0, 184, 1.11e+07, 2.6583810, 0.0019537
UNKN, 2
GPS, 1, 0, 0, 0, 99.99, 37.7510218, -122.4687355, 0.00, 228.29, 0.00, 0.00, 0.000000, 19616
STRT,
CMD, 182, 76, 0, 0, 127, 1.31e+07, 2.6583810, 0.0019638
UNKN, 2
STRT,
CMD, 24, 77, 0, 0, 118, 1.39e+07, 2.6583810, 0.0019737
UNKN, 2
GPS, 1, 0, 0, 0, 99.99, 37.7510218, -122.4687355, 0.00, 228.29, 0.00, 0.00, 0.000000, 19816
STRT,
CMD, 124, 77, 0, 0, 173, 1.41e+07, 2.6583810, 0.0019836
UNKN, 2 -5.77, 0.00, 50.86
UNKN, 2
GPS, 1, 0, 0, 0, 99.99, 37.7510218, -122.4687355, 0.00, 228.29, 0.00, 0.0203.36, 0.00, 0.00, 5.23, -5.77, 0.00, 50.86
UNKN, 2
GPS, 1, 0, 0, 0, 99.99, 37.7510218, -122.4687355, 0.00, 228.29, 0.00, 0.00, 0.000000, 20416
STRT,
CMD, 212, 79, 0, 0, 23, -8222252., 2.6583809, 0.0020436
UNKN, 2
STRT,
CMD, 56, 80, 0, 0, 44, -9228897., 2.6583809, 0.0020536
UNKN, 2
GPS, 1, 0, 0, 0, 99.99, 37.7510218, -122.4687355, 0.00, 228.29, 0.00, 0 0, 177, -7383767., 2.6583809, 0.0021236
UNKN, 2
NTUN, 213.16, 0.00, 0.000000, 0.000000, -0.000000, 0.000000, 0.000001, -0.000000, -1.547708e+26, 0.000000, -1.56e+07, 1.40e+07
ATT, 213.36, 0.00, 0.00, 7.21, -6.82, 0.00, 341.35
UNKN, 2
GPS, 1, 0, 0, 0, 99.99, 37.7510218, -122.4687355, 0.00, 228.29, 0.00, 0.00, 0.000000, 21435
STRT,
CMD, 188, 83, 0, 0, 206, -2350559., 2.6583809, 0.0021436
UNKN, 2
STRT,
CMD, 31, 84, 0, 0, 154, 1004900., 2.6583810, 0.0021536
UNKN, 2
GPS, 1, 0, 0, 0, 99.99, 37.7510218, -122.4687355, 0.00, 228.29, 0.00, 0.00, 0.000000, 21617
STRT,
CMD, 131, 84, 0, 0, 158, 4695921., 2.6583810, 0.0021636
UNKN, 2
STRT,
CMD, 232, 84, 0, 0, 51, 1.04e+07, 2.6583810, 0.0021736
UNKN, 2
GPS, 1, 0, 0, 0, 99.99, 37.7510218, -122.4687355, 0.00, 228.29, 0.00, 0.00, 0.000000, 21836
STRT,
CMD, 77, 85, 0, 0, 51, 1.04e+07, 2.6583810, 0.0021837
UNKN, 2
STRT,
CMD, 175, 85, 0, 0, 239, 1.19e+07, 2.6583810, 0.0021935
UNKN, 2
GPS, 1, 0, 0, 0, 99.99, 37.7510218, -122.4687355, 0.00, 228.29, 0.00, 0.00, 0.000000, 22035
STRT,
CMD, 20, 86, 0, 0, 146, 1.56e+07, 2.6583810, 0.0022036
UNKN, 2
STRT,
CMD, 119, 86, 0, 0, 129, 1.73e+07, 2.6583810, 0.0022135
UNKN, 2
GPS, 1, 0, 0, 0, 99.99, 37.7510218, -122.4687355, 0.00, 228.29, 0.00, 0.00, 0.000000, 22215
STRT,
CMD, 219, 86, 0, 0, 185, 1.68e+07, 2.6583810, 0.0022235
UNKN, 2
NTUN, 223.16, 0.00, 0.000000, 0.000000, -0.000000, 0.000000, 0.000000, -0.000000, -1.547708e+26, 0.000000, -1.56e+07, 1.46e+07
ATT, 223.35, 0.00, 0.00, 7.22, -5.15, 0.00, 274.35
UNKN, 2
GPS, 1, 0, 0, 0, 99.99, 37.7510218, -122.4687355, 0.00, 228.29, 0.00, 0.00, 0.000000, 22415
STRT,
CMD, 163, 87, 0, 0, 233, 1.74e+07, 2.6583810, 0.0022435
UNKN, 2
STRT,
CMD, 7, 88, 0, 0, 241, 1.66e+07, 2.6583810, 0.0022535
UNKN, 2
GPS, 1, 0, 0, 0, 99.99, 37.7510218, -122.4687355, 0.00, 228.29, 0.00, 0.00, 0.000000, 22615
STRT,
CMD, 107, 88, 0, 0, 254, 1.71e+07, 2.6583810, 0.0022635
UNKN, 2
STRT,
CMD, 207, 88, 0, 0, 24, 1.51e+07, 2.6583810, 0.0022735
UNKN, 2
GPS, 1, 0, 0, 0, 99.99, 37.75102  37.7510218, -122.4687355, 0 2
STRT,
CMD, 126, 93, 0, 0, 2, -2.05e+07, 2.6583810, 0.0023934
UNKN, 2
GPS, 1, 0, 0, 0, 99.99, 37.7510218, -122.4687355, 0.00, 228.29,CMD, 126, 93, 0, 0, 2, -2.05e+07, 2.6583810, 0.0023934
UNKN, 2
GPS, 1, 0, 0, 0, 99.99, 37.7510218, -122.4687355, 0.00, 228.29, 0.00, 0.00, 0.000000, 24035
STRT,
CMD, 228, 93, 0, 0, 12, -2.10e+07, 2.6583810, 0.0024036
UNKN, 2
STRT,
CMD, 70, 94, 0, 0, 23, -2.11e+07, 2.6583810, 0.0024134
UNKN, 2
GPS, 1, 0, 0, 0, 99.99, 37.71.86e+07, 2.6583810, 0.0024734
UNKN, 2
GPS, 1, 0, 0, 0, 99.99, 37.7510218, -122.4687355, 0.00, 228.29, 0.00, 0.00, 0.000000, 24833
STRT,
CMD, 2, 97, 0, 0, 29, -1.86e+07, 2.6583810, 0.0024834
UNKN, 2
STRT,
CMD, 102, 97, 0, 0, 22, -1.80e+07, 2.6583810, 0.0024934
UNKN, 2
GPS, 1, 0, 0, 0, 99.99, 37.7510218, -122.4687355, 0.00, 228.29, 0.00, 0.00, 0.000000, 25033
STRT,
CMD, 202, 97, 0, 0, 12, -1.74e+07, 2.6583810, 0.0025034
UNKN, 2
STRT,
CMD, 47, 98, 0, 0, 3, -1.73e+07, 2.6583810, 0.0025135
UNKN, 2
GPS, 1, 0, 0, 0, 99.99, 37.7510218, -122.4687355, 0.00, 228.29, 0.00, 0.00, 0.000000, 25233
STRT,
CMD, 146, 98, 0, 0, 12, -1.81e+07, 2.6583810, 0.0025234
UNKN, 2
NTUN, 253.15, 0.00, 0.000000, 0.000000, -0.000000, 0.000000, 0.000007, -0.000000, -1.547708e+26, 0.000000, -1.56e+07, 1.66e+07
ATT, 253.34, 0.00, 0.00, 7.98, -5.16, 0.00, 161.04
UNKN, 2
GPS, 1, 0, 0, 0, 99.99, 37.7510218, -122.4687355, 0.00, 228.29, 0.00, 0.00, 0.000000, 25433
STRT,
CMD, 90, 99, 0, 0, 47, 2.11e+07, 2.6583810, 0.0025434
UNKN, 2
STRT,
CMD, 189, 99, 0, 0000, 25633
STRT,
CMD, 34, 100, 0, 0, 55, 2.08e+07, 2.6583810, 0.0025634
UNKN, 2
STRT,
CMD, 133, 100, 0, 0, 54, 2.10e+07, 2.65838103
STRT,
CMD, 34, 100, 0, 0, 55, 2.08e+07, 2.6583810, 0.0025634
UNKN, 2
STRT,
CMD, 133, 100, 0, 0, 54, 2.10e+07, 2.6583810, 0.0025733
UNKN, 2
GPS, 1, 0, 0, 0, 99.99, 37.7510218, -122.4687355, 0.00, 228.29, 0.00, 0.00, 0.000000, 25833
STRT,
CMD, 234, 100, 0, 0, 55, 2.13e+07, 2.6583810, 0.0025834
UNKN, 2
STRT,
CMD, 77, 101, 0, 0, 58, 2.06e+07, 2.6583810, .0026434
UNKN, 2
STRT,
CMD, 165, 103, 0, 0, 70, 2.10e+07, 2.6583810, 0.0026533
UNKN, 2
GPS, 1, 0, 0, 0, 99.99, 37.7510218, -122.4687355, 0.00, 228.29, 0.00, 0.00, 0.000000, 26632
STRT,
CMD, 9, 104, 0, 0, 113, 1.91e+07, 2.6583810, 0.0026633
UNKN, 2
STRT,
CMD, 109, 104, 0, 0, 119, 1.91e+07, 2.6583810, 0.0026733
UNKN, 2
GPS, 1, 0, 0, 0, 99.99, 37.7510218, -122.4687355, 0.00, 228.29, 0.00, 0.00, 0.000000, 26832
STRT,
CMD, 209, 104, 0, 0, 140, 1.64e+07, 2.6583810, 0.0026834
UNKN, 2
STRT, 00, -0.000000, 0.000000, 0.000490, -0.000000, -1.547708e+26, 0.000000, -1.56e+07, 1.79e+07
ATT, 273.34, 0.00, 0.00, 8.54, -6.38, 0.00, 332.96
UNKN, 2
GPS, 1, 0, 0, 0, 99.99, 37.7510218, -122.4687355, 0.00, 228.29, 0.00, 0.00, 0.000000, 27432
STRT,
CMD, 41, 107, 0, 0, 81, 2.10e+07, 2.6583810, 0.0027433
UNKN, 2
STRT,
CMD, 140, 107, 0, 0, 85, 1.88e+07, 2.6583810, 0.0027533
UNKN, 2
GPS, 1, 0, 0, 0, 99.99, 37.7510218, -122.4687355, 0.00, 228.29, 0.00, 0.00, 0.000000, 27632
STRT,
CMD, 241, 107, 0,+07, 2.6583810, 0.0027832
UNKN, 2
STRT,
CMD, 28, 109, 0, 0, 125, 1.44e+07, 2.6583810, 0.0027932
UNKN, 2
GPS, 1, 0, 0, 0, 99.99, 37.7510218, -122.4687355, 0.00, 228.29, 0.00, 0.00, 0.000000, 28032
STRT,
CMD, 129, 109, 0, 0, 140, 1.49e+07, 2.6583810, 0.0028033
UNKN, 2
STRT,
CMD, 228, 109, 0, 0, 140, 1.49e+07, 2.6583810, 0.0028132
UNKN, 2
GPS, 1, 0, 0, 0, 99.99, 37.7510218, -122.4687355, 0.00, 228.29, 0.00, 0.00, 0.000000, 28232
STRT,
CMD, 73, 110, 0, 0, 130, 1.71e+07, 2.6583810, 0.0028233
U1, 0, 0, 121, 1.73e+07, 2.6583810, 0.0028532
UNKN, 2
GPS, 1, 0, 0, 0, 99.99, 37.7510218, -122.4687355, 0.00, 228.29MD, 116, 111, 0, 0, 121, 1.73e+07, 2.6583810, 0.0028532
UNKN, 2
GPS, 1, 0, 0, 0, 99.99, 37.7510218, -122.4687355, 0.00, 228.29, 0.00, 0.00, 0.000000, 28632
STRT,
CMD, 217, 111, 0, 0, 117, 1.73e+07, 2.6583810, 0.0028633
UNKN, 2
STRT,
CMD, 60, 112, 0, 0, 112, 1.76e+07, 2.6583810, 0.0028732
UNKN, 2
GPS, 1, 0, 0, 0, 99.99, 0 0, 29431
STRT,
CMD, 248, 114, 0, 0, 106, 1.74e+07, 2.6583810, 0.0029432
UNKN, 2
STRT,
CMD, 93, 115, 0, 0, 105, 1.88e+07, 2.6583810, TRT,
CMD, 248, 114, 0, 0, 106, 1.74e+07, 2.6583810, 0.0029432
UNKN, 2
STRT,
CMD, 93, 115, 0, 0, 105, 1.88e+07, 2.6583810, 0.0029533
UNKN, 2
GPS, 1, 0, 0, 0, 99.99, 37.7510218, -122.4687355, 0.00, 228.29, 0.00, 0.00, 0.000000, 29631
STRT,
CMD, 192, 115, 0, 0, 114, 1.88e+07, 2.6583810, 0.0029632
UNKN, 2
STRT,
CMD, 35, 116, 0, 0, 120, 1.86e+07, 2.6583810, 0.0029731
UNKN, 2
GPS, 1, 0, 0, 0, 99.99, 37.7510218, -122.4687355, 0.00, 228.29,0.000000, 30031
STRT,
CMD, 80, 117, 0, 0, 128, 2.01e+07, 2.6583810, 0.0030032
UNKN, 2
STRT,
CMD, 179, 117, 0, 0, 130, 2.01e+07, 2.6583810, 0.0030131
UNKN, 2
GPS, 1, 0, 0, 0, 99.99, 37.7510218, -122.4687355, 0.00, 228.29, 0.00, 0.00, 0.000000, 30231
STRT,
CMD, 24, 118, 0, 0, 129, 2.01e+07, 2.6583810, 0.0030232
UNKN, 2
NTUN, 303.12, 0.00, 0.000000, 0.000000, -0.000000, 0.000000, 0.007856, -0.000000, -1.547708e+26, 0.000000, -1.56e+07, 1.99e+07
ATT, 303.31, 0.00, 0.00, 8.98, -6.88, 0.00, 433.38
UNKN,0030832
UNKN, 2
STRT,
CMD, 211, 120, 0, 0, 128, -2.10e+07, 2.6583810, 0.0030931
UNKN, 2
GPS, 1, 0, 0, 0, 99.99, 37.7510218, -1232
UNKN, 2
STRT,
CMD, 211, 120, 0, 0, 128, -2.10e+07, 2.6583810, 0.0030931
UNKN, 2
GPS, 1, 0, 0, 0, 99.99, 37.7510218, -122.4687355, 0.00, 228.29, 0.00, 0.00, 0.000000, 31031
STRT,
CMD, 56, 121, 0, 0, 128, -2.08e+07, 2.6583810, 0.0031032
UNKN, 2
STRT,
CMD, 155, 121, 0, 0, 127, -2.05e+07, 2.6583810, 0.0031131
UNKN, 2
GPS, 1, 0, 0, 0, 99.992
GPS, 1, 0, 0, 0, 99.99, 37.7510218, -122.4687355, 0.00, 228.29, 0 87, 124, 0, 0, 123, -1.93e+07, 2.6583810, 0.0031831
UNKN, 2
GPS, 1, 0, 0, 0, 99.99, 37.7510218, -122.4687355, 0.00, 228.29, 0.00, 0.00, 0.000000, 31850
STRT,
CMD, 186, 124, 0, 0, 124, -1.91e+07, 2.6583810, 0.0031930
UNKN, 2
STRT,
CMD, 31, 125, 0, 0, 126, -1.90e+07, 2.6583810, 0.0032031
UNKN, 2
GPS, 1, 0, 0, 0, 99.99, 37.7510218, -122.4687355, 0.00, 228.29, 0.00, 0.00, 0.000000, 32050
STRT,
CMD, 130, 125, 0, 0, 124, -1.88e+07, 2.6583810, .29, 0.00, 0.00, 0.000000, 32450
STRT,
CMD, 18, 127, 0, 0, 120, -1.88e+07, 2.6583810, 0.0032530
UNKN, 2
STRT,
CMD, 119, 127, 0, 0, 117, -1.81e+07, 2.6583810, 0.0032631
UNKN, 2
GPS, 1, 0, 0, 0, 99.99, 37.7510218, -122.4687355, 0.00, 228.29, 0.00, 0.00, 0.000000, 32669
STRT,
CMD, 218, 127, 0, 0, 112, -1.78e+07, 2.6583810, 0.0032730
UNKN, 2
GPS, 1, 0, 0, 0, 99.99, 37.7510218, -122.4687355, 0.00, 228.29, 0.00, 0.00, 0.000000, 32809
STRT,
CMD, 63, 128, 0, 0, 114, -1.75e+07, 2.6583810, 0.0032831
UNKN, 2
ST10, 0.0033530
UNKN, 2
GPS, 1, 0, 0, 0, 99.99, 37.750, 0.0033430
UNKN, 2
STRT,
CMD, 249, 130, 0, 0, 121, -1.71e+07, 2.6583810, 0.0033530
UNKN, 2
GPS, 1, 0, 0, 0, 99.99, 37.7510218, -122.4687355, 0.00, 228.29, 0.00, 0.00, 0.000000, 33609
STRT,
CMD, 93, 131, 0, 0, 123, -1.71e+07, 2.6583810, 0.0033630
UNKN, 2
STRT,
CMD, 193, 131, 0, 0, 121, -1.75e+07, 2.6583810, 0.0033729
UNKN, 2
GPS, 1, 0, 0, 0, 99.99, 37.7510218, -122.4687355, 0.00, 228.29, 0.00, 0.00, 0.000000, 33809
STRT,
CMD, 37, 132, 0, 0, 120, -1.68e+07, 2.6583810, 0.0033829
UNKN, 2
STRT,
CMD, 139, 132, 0, 0, 119, -1.71e+07, 2.6583810, 0.0033931
UNKN, 2
GPS, 1, 0, 0, 0, 99.99, 37.7510218, -122.4687355, 0.00, 228.29, 0.00, 0.00, 0.000000, 34009
STRT,
CMD, 237, 132, 0, 0, 119, -1.73e+07, 2.6583810, 0.0034029
UNKN, 2
STRT,
CMD, 81, 133, 0, 0, 124, -1.66e+07, 2.6583810, 0.0034129
UNKN, 2
GPS, 1, 0, 0, 0, 99.99, 37.7510218, -122.4687355, 0.00, 228.29, 0.00, 0.00, 0.000000, 34209
STRT,
CMD, 181, 132.00, 228.29, 0.00, 0.00, 0.000000, 35009483., 2.6583810, 0.0034929
UNKN, 2
GPS, 1, 0, 0, 0, 99.99, 37.7510218, -122.4687355, 0.00, 228.29, 0.00, 0.00, 0.000000, 35009
STRT,
83810, 0.0034929
UNKN, 2
GPS, 1, 0, 0, 0, 99.99, 37.7510218, -122.4687355, 0.00, 228.29, 0.00, 0.00, 0.000000, 35009
STRT,
CMD, 214, 136, 0, 0, 69, -1008397., 2.6583810, 0.0035030
UNKN, 2
STRT,
CMD, 57, 137, 0, 0, 66, -1679483., 2.6583810, 0.0035129
UNKN, 2
GPS, 1, 0, 0, 0, 99.99, 37.7510218, -122.4687355, 0.00, 228.29, 0.00, 0.00, 0.000000, 35208
STRT,
CMD, 157, 137, 0, 0, 64, -840624.6, 2.6583810, 0.0035229
UNKN, 2
NTUN, 353.09, 0.00, 0.000000, 0.000000, -0.000000, 0.000000, 0.000007, -0.000000, -1.547708e+26, 0.000000, -1.56e+07, -1.98e+07
ATT, -302.07, 0.00, 0.00, 8.27, -6.84, 0.00, 530.92
UNKN, 2
GPS, 1, 0, 0, 0, 99.99, 37.7510218, -122.4687355, 0.00, 228.29, 0.00, 0.00, 0.000000, 35408
STRT,
CMD, 100, 138, 0, 0, 62, -1008379., 2.6583810, 0.0035429
UNKN, 2
STRT,
CMD, 200, 138, 0, 0, 61, -2518313., 2.6583810, 0.0035529
UNKN, 2
GPS, 1, 0, 0, 0, 99.99, 37.7510218, -122.4687355, 0.00, 228.29, 0.00, 0.00, 0.000000, 35608
STRT,
CMD, 44, 139, 0, 0, 63, -1511675., 2.6583810, 0.0035629
UNKN, 2
STRT,
CMD, 144, 139, 0, 0, 58, -337256.9, 2.6583810, 0.0035728
UNKN, 2
GPS, 1, 0, 0, 0, 99.99, 37.7510218, -122.4687355, 0.00, 228.29, 0.00, 0.00, 0.000000, 35808
STRT,
CMD, 244, 139, 0, 0, 59, 166064.7, 2.6583811, 0.0035828
UNKN, 2
STRT,
CMD, 88, 140, 0, 0, 64, 166057.0, 2.6583811, 0.0035928
UNKN, 2
GPS, 1, 0, 0, 0, 99.99, 37.7510218, -122.4687355, 0.00, 228.29, 0.00, 0.00, 0.000000, 36008
STRT,
CMD, 188, 140, 0, 0, 68, -1008346., 2.6583810, 0.0036028
UNKN, 2
STRT,
CMD, 34, 141, 0, 0, 71, -3021614., 2.6583810, 0.0036130
UNKN, 2
GPS, 1, 0, 0, 0, 99.99, 37.7510218, -122.4687355, 0.00, 228.29, 0.00, 0.00, 0.000000, 36208
STRT,
CMD, 132, 141, 0, 0, 75, -5202647., 2.6583810, 0.0036228
UNKN, 2
NTUN, 363.09, 0.00, 0.000000, 0.000000, -0.000000, 0.000000, 0.000000, -3.488403e+10, 0.000000, 0.000000, 5.12, -1.78e+07
CMD, 232, 141, 0, 0, 78, -6209278., 2.6583810, 0.0036328
UNKN, 2
GPS, 1, 0, 0, 0, 99.99, 37.7510218, -122.4687355, 0.00, 228.29, 0.00, 0.00, 0.000000, 36408
STRT,
CMD, 76, 142, 0, 0, 88, -7048156., 2.6583810, 0.0036428
UNKN, 2
STRT,
CMD, 176, 142, 0, 0, 96, -8893663., 2.6583810, 0.0036528
UNKN, 2
GPS, 1, 0, 0, 0, 99.99, 37.7510218, -122.4687355, 0.00, 228.29, 0.00, 0.00, 0.000000, 36607
STRT,
CMD, 20, 143, 0, 0, 102, -9396989., 2.6583810, 0.0036628
UNKN, 2
9-1.59e+07, 2.6583810, 0.0037827
UNKN, 2
STRT,
CMD, 39, 148, 0, 0, 120, -1.66e+07, 2.6583810, 0.0037927
UNKN, 2
GPS, 1, 0, 0, 0, 99.99, 37.7510218, -122.4687355, 0.00, 228.29, 0.00, 0.00, 0.000000, 38007
STRT,
CMD, 139, 148, 0, 0, 112, -1.68e+07, 2.6583810, 0.0038027
UNKN, 2
STRT,
CMD, 239, 148, 0, 0, 111, -1.64e+07, 2.6583810, 0.0038127
UNKN, 2
GPS, 1, 0, 0, 0, 99.99, 37.7510218, -122.4687355, 0.00, 228.29, 0.00, 0.00, 0.000000, 38227
STRT,
CMD, 84, 149, 0, 0, 111, -1.66e+07, 2.6583810, 0.0038228
UNKN, 2
NTUN, 383.09, 0.00, 0.000000, 0.000000, -0.000000, 0.000000, 0.000491, -0.000000, -1.547708e+26, 0.000000, -1.56e+07, -1.78e+07
ATT, -272.07, 0.00, 0.00, 8.75, -6.77, 0.00, 599.78
UNKN, 2
GPS, 1, 0, 0, 0, 99.99, 37.7510218, -122.4687355, 0.00, 228.29, 0.00, 0.00, 0.000000, 38427
STRT,
CMD, 28, 150, 0, 0, 106, -1.73e+07, 2.6583810, 0.0038428
UNKN, 2
STRT,
CMD, 127, 150, 0, 0, 104, -1.75e+07, 2.6583810, 0.0038527
UNKN, 2
GPS, 1, 0, 0, 0, 99.99, 37.7510218, -122.4687355, 0.00, 228.29, 0.00, 0.00, 0.000000, 38626
STRT,
CMD, 227, 150, 0, 0, 97, -1.80e+07, 2.6583810, 0.0038628
UNKN, 2
STRT,
CMD, 71, 151, 0, 0, 99, -1.83e+07, 2.6583810, 0.0038727
UNKN, 2
GPS, 1, 0, 0, 0, 99.99, 37.7510218, -122.4687355, 0.00, 228.29, 0.00, 0.00, 0.000000, 38827
STRT,
CMD, 172, 151, 0, 0, 102, -1.81e+07, 2.6583810, 0.0038828
UNKN, 2
STRT,
CMD, 15, 152, 0, 0, 97, -1.80e+07, 2.6583810, 0.0038927
UNKN, 2
GPS, 1, 0, 0, 0, 99.99, 37.7510218, -122.4687355, 0.00, 228.29, 0.00, 0.00, 0.000000, 39027
STRT,
CMD, 116, 152,
UNKN, 2
STRT,
CMD, 102, 154, 0, 0, 83, -1.76e+07, 2.6583810, 0.0039527
UNKN, 2
GPS, 1, 0, -1.78e+07, 2.6583810, 0.0039429
UNKN, 2
STRT,
CMD, 102, 154, 0, 0, 83, -1.76e+07, 2.6583810, 0.0039527
UNKN, 2
GPS, 1, 0, 0, 0, 99.99, 37.7510218, -122.4687355, 0.00, 228.29, 0.00, 0.00, 0.000000, 39627
STRT,
CMD, 204, 154, 0, 0, 85, -1.74e+07, 2.6583810, 0.0039628
UNKN, 2
STRT,
CMD, 46, 155, 0, 0, 83, -1.76e+07, 2.6583810, 0.0039726
UNKN, 2
GPS, 1, 0, 0, 0, 99.99, 37.7510218, -122.4687355,6, 0.00, 000, 0.000000, 0.000122, -0.000000, -1.547708e+26, 0.000000, -1.56e+07, -1.65e+07
ATT, -252.10, 0.00, 0.00, 8.45, -6.46, 0.00, 575.87
00000, 0.000122, -0.000000, -1.547708e+26, 0.000000, -1.56e+07, -1.65e+07
ATT, -252.10, 0.00, 0.00, 8.45, -6.46, 0.00, 575.87
UNKN, 2
GPS, 1, 0, 0, 0, 99.99, 37.7510218, -122.4687355, 0.00, 228.29, 0.00, 0.00, 0.000000, 40426
STRT,
CMD, 235, 157, 0, 0, 76, -1.71e+07, 2.6583810, 0.0040427
UNKN, 2
STRT,
CMD, 79, 158, 0, 0, 77, -1.PS, 1, 0, 0, 4, 34.49, 37.7513532, -122.4682398, 0.00, 282.30, 3.66, 31.99, 0.000000, 41225
STRT,
CMD, 10, 161, 0, 0, 82, -1.85e+07, 2.6583810, 0.0041226
UNKN, 2
NTUN, 413.06, 0.00, 0.000000, 0.000000, -0.000000, 0.000000, 0.000491, -0.000000, -1.547708e+26, 0.000000, -1.56e+07, -1.59e+07
ATT, -242.10, 0.00, 0.00, 8.52, -6.48, 0.00, 523.03
UNKN, 2
GPS, 1, 0, 0, 4, 34.49, 37.7514331, -122.4681576, 0.00, 296.07, 3.85, 36.60, 0.000000, 41425
STRT,
CMD, 210, 161, 0, 0, 87, -1.86e+07, 2.6583810, 0.0041426
UNKN, 2
S53, 162, 0, 0, 93, -1.81e+07, 2.6583810, 0.0041725
UNKN, 2
GPS, 1, 0, 0, 4, 34.49, 37.7515030, -122.4680851, 0.00, 307.20, 3.67, 39.87, 0.000000, 41825
STRT,
CMD, 98, 163, 0, 0, 94, -1.78e+07, 2.6583810, 0.0041826
UNKN, 2
STRT,
CMD, 197, 163, 0, 0, 97, -1.74e+07, 2.6583810, 0.0041925
UNKN, 2
GPS, 1, 0, 0, 4, 34.49, 37.7515017, -122.4680877, 0.00, 306.65, 3.76, 39.91, 0.000000, 42025
STRT,
CMD, 42, 164, 0, 0, 98, -1.71e+07, 2.6583810, 0.0042026
UNKN, 2
STRT,
CMD, 141, 164, 0, 0, 101, -1.66e+07, 2.6583810242, 164, 0, 0, 102, -1.66e+07, 2.6583810, 0.0042226
UNKN, 2
NTUN, 423.06, 0.00, 0.000000, 0.000000, -0.000000,
STRT,
CMD, 242, 164, 0, 0, 102, -1.66e+07, 2.6583810, 0.0042226
UNKN, 2
NTUN, 423.06, 0.00, 0.000000, 0.000000, -0.000000, 0.000000, 0.000491, -0.000000, -1.547708e+26, 0.000000, -1.56e+07, -1.52e+07
ATT, -232.11, 0.00, 0.00, 8.67, -6.63, 0.00, 118.72
UNKN, 2
GPS, 1, 0, 0, 5, 5.71, 37.7510452, -122.4686509, 0.00, 227.45, 1.57, 39.80, 0.000000, 42425
STRT,
CMD, 186, 165, 0, 0, 98, -1.71e+07, 2.6583810, 0.0042426
UNKN, 2
STRT,
CMD, 29, 166, 0, 0, 98, -1.68e+07, 2.6583810, 0.0042525
UNKN, 2
GPS, 3, 355707800, 1782, 5, 5.71, 37.7510263, -122.4686756, 0.00, 224.04, 1.02, 39.80, -1.210000, 42624
STRT,
CMD, 129, 166, 0, 0, 95, -1.71e+07, 2.6583810, 0.0042626
UNKN, 2
STRT,
CMD, 231, 166, 0, 0, 96, -1.71e+07, 2.6583810, 0.0042727
UNKN, 2
GPS, 3, 355708000, 1782, 5, 5.71, 37.7510120, -122.4686943, 0.00, 221.42, 1.00, 39.80, -0.930000, 42825
STRT,
CMD, 74, 167, 0, 0, 94, -1.68e+07, 2.6583810, 0.0042826
UNKN, 2
STRT,
CMD, 173, 167, 0, 0, 93, -1.66e+07, 2.6583810, 0.0042925
UNKN, 2
MSG, init home
GPS, 3, 355708200, 1782, 5, 5.71, 37.7510146, -122.4686926, 0.00, 221.78, 1.25, 39.80, -1.380000, 43053
STRT,
CMD, 46, 168, 0, 0, 91, -1.69e+07, 2.6583810, 0.0043054
UNKN, 2
STRT,
CMD, 143, 168, 0, 0, 91, -1.68e+07, 2.6583810, 0.0043151
UNKN, 2
GPS, 3, 355708400, 1782, 5, 5.71, 37.7510244, -122.4686827, 0.00, 222.94, 0.50, 39.80, -0.900000, 43229
STRT,
CMD, 241, 168, 0, 0, 89, -1.71e+07, 2.6583810, 0.0043250
UNKN, 2
NTUN, 433.12, 0.00, 0.000000, 0.000000, -0.000000, 0.000000, 0.000491, -0.000000, -1.547708e+26, 0.000000, -1.56e+07, -1.45e+07
ATT, -221.86, 0.00, 0.00, 8.60, -6.54, 0.00, 454.41
UNKN, 2
GPS, 3, 355708600, 1782, 5, 5.71, 37.7510247, -122.4686790, 0.00, 223.10, 0.53, 39.80, -0.280000, 43429
STRT,
CMD, 185, 169, 0, 0, 86, -1.78e+07, 2.6583810, 0.0043450
UNKN, 2
STRT,
CMD, 29, 170, 0, 0, 87, -1.76e+07, 2.6583810, 0.0043550
U2
GPS,0, 81, -1.80e+07, 2.6583810, 0.0043849
UNKN, 2
STRT,
